{
"type": "FeatureCollection",
"name": "docomo-cycle-tokyo_station",
"crs": { "type": "name", "properties": { "name": "urn:ogc:def:crs:OGC:1.3:CRS84" } },
"features": [
{ "type": "Feature", "properties": { "lat": "35.693799", "lon": "139.753281", "name": "A1-01.千代田区役所", "capacity": "8", "region_id": "1", "station_id": "00010001" }, "geometry": { "type": "Point", "coordinates": [ 139.753281, 35.693799 ] } },
{ "type": "Feature", "properties": { "lat": "35.701073", "lon": "139.747525", "name": "A1-03.東京区政会館（メトロA5出口）", "capacity": "7", "region_id": "1", "station_id": "00010003" }, "geometry": { "type": "Point", "coordinates": [ 139.747525, 35.701073 ] } },
{ "type": "Feature", "properties": { "lat": "35.701347", "lon": "139.746951", "name": "A1-04.東京区政会館（西側駐輪場）", "capacity": "7", "region_id": "1", "station_id": "00010004" }, "geometry": { "type": "Point", "coordinates": [ 139.746951, 35.701347 ] } },
{ "type": "Feature", "properties": { "lat": "35.699187", "lon": "139.746348", "name": "A1-05.富士見出張所", "capacity": "5", "region_id": "1", "station_id": "00010005" }, "geometry": { "type": "Point", "coordinates": [ 139.746348, 35.699187 ] } },
{ "type": "Feature", "properties": { "lat": "35.699132", "lon": "139.74462", "name": "A1-08.飯田橋サクラテラス（早稲田通り）", "capacity": "13", "region_id": "1", "station_id": "00010036" }, "geometry": { "type": "Point", "coordinates": [ 139.74462, 35.699132 ] } },
{ "type": "Feature", "properties": { "lat": "35.696449", "lon": "139.750784", "name": "A1-10.ヒューリック九段ビル", "capacity": "6", "region_id": "1", "station_id": "00010138" }, "geometry": { "type": "Point", "coordinates": [ 139.750784, 35.696449 ] } },
{ "type": "Feature", "properties": { "lat": "35.695515", "lon": "139.750213", "name": "A1-12.北の丸スクエア", "capacity": "8", "region_id": "1", "station_id": "00010265" }, "geometry": { "type": "Point", "coordinates": [ 139.750213, 35.695515 ] } },
{ "type": "Feature", "properties": { "lat": "35.697167", "lon": "139.745629", "name": "A1-15.富士見みらい館", "capacity": "3", "region_id": "1", "station_id": "00010735" }, "geometry": { "type": "Point", "coordinates": [ 139.745629, 35.697167 ] } },
{ "type": "Feature", "properties": { "lat": "35.692605", "lon": "139.755761", "name": "A1-17.雉子橋集積所", "capacity": "6", "region_id": "1", "station_id": "00001294" }, "geometry": { "type": "Point", "coordinates": [ 139.755761, 35.692605 ] } },
{ "type": "Feature", "properties": { "lat": "35.696202", "lon": "139.752351", "name": "A1-18.東京区政会館別館(特別区研修所)", "capacity": "5", "region_id": "1", "station_id": "00001061" }, "geometry": { "type": "Point", "coordinates": [ 139.752351, 35.696202 ] } },
{ "type": "Feature", "properties": { "lat": "35.694065", "lon": "139.751801", "name": "A1-19.九段会館テラス", "capacity": "5", "region_id": "1", "station_id": "00001147" }, "geometry": { "type": "Point", "coordinates": [ 139.751801, 35.694065 ] } },
{ "type": "Feature", "properties": { "lat": "35.695762", "lon": "139.761585", "name": "A2-01.神田駿河台下", "capacity": "55", "region_id": "1", "station_id": "00010008" }, "geometry": { "type": "Point", "coordinates": [ 139.761585, 35.695762 ] } },
{ "type": "Feature", "properties": { "lat": "35.698591", "lon": "139.755113", "name": "A2-02.西神田公園（北側）", "capacity": "9", "region_id": "1", "station_id": "00010009" }, "geometry": { "type": "Point", "coordinates": [ 139.755113, 35.698591 ] } },
{ "type": "Feature", "properties": { "lat": "35.698338", "lon": "139.754876", "name": "A2-03.西神田公園（西側）", "capacity": "8", "region_id": "1", "station_id": "00010010" }, "geometry": { "type": "Point", "coordinates": [ 139.754876, 35.698338 ] } },
{ "type": "Feature", "properties": { "lat": "35.691456", "lon": "139.762228", "name": "A2-04.ちよだプラットフォームスクウェア", "capacity": "11", "region_id": "1", "station_id": "00010011" }, "geometry": { "type": "Point", "coordinates": [ 139.762228, 35.691456 ] } },
{ "type": "Feature", "properties": { "lat": "35.689665", "lon": "139.764091", "name": "A2-05.神田橋公園", "capacity": "5", "region_id": "1", "station_id": "00010012" }, "geometry": { "type": "Point", "coordinates": [ 139.764091, 35.689665 ] } },
{ "type": "Feature", "properties": { "lat": "35.69919", "lon": "139.75701", "name": "A2-06.東光電気工事 別館（屋内駐輪場）", "capacity": "8", "region_id": "1", "station_id": "00010028" }, "geometry": { "type": "Point", "coordinates": [ 139.75701, 35.69919 ] } },
{ "type": "Feature", "properties": { "lat": "35.700568", "lon": "139.76013", "name": "A2-08.KDX御茶ノ水ビル", "capacity": "11", "region_id": "1", "station_id": "00010034" }, "geometry": { "type": "Point", "coordinates": [ 139.76013, 35.700568 ] } },
{ "type": "Feature", "properties": { "lat": "35.6931", "lon": "139.7599", "name": "A2-09.テラススクエア", "capacity": "7", "region_id": "1", "station_id": "00010038" }, "geometry": { "type": "Point", "coordinates": [ 139.7599, 35.6931 ] } },
{ "type": "Feature", "properties": { "lat": "35.694532", "lon": "139.760695", "name": "A2-12.神保町三井ビルディング", "capacity": "10", "region_id": "1", "station_id": "00010042" }, "geometry": { "type": "Point", "coordinates": [ 139.760695, 35.694532 ] } },
{ "type": "Feature", "properties": { "lat": "35.6927", "lon": "139.759311", "name": "A2-14.興和一橋ビル", "capacity": "17", "region_id": "1", "station_id": "00010485" }, "geometry": { "type": "Point", "coordinates": [ 139.759311, 35.6927 ] } },
{ "type": "Feature", "properties": { "lat": "35.697255", "lon": "139.763469", "name": "A2-16.NTT駿河台ビル", "capacity": "4", "region_id": "1", "station_id": "00010664" }, "geometry": { "type": "Point", "coordinates": [ 139.763469, 35.697255 ] } },
{ "type": "Feature", "properties": { "lat": "35.692396", "lon": "139.75639", "name": "A2-17.竹橋ビル", "capacity": "10", "region_id": "1", "station_id": "00010716" }, "geometry": { "type": "Point", "coordinates": [ 139.75639, 35.692396 ] } },
{ "type": "Feature", "properties": { "lat": "35.698654", "lon": "139.759762", "name": "A2-18.猿楽町SSビル東", "capacity": "6", "region_id": "1", "station_id": "00010835" }, "geometry": { "type": "Point", "coordinates": [ 139.759762, 35.698654 ] } },
{ "type": "Feature", "properties": { "lat": "35.698641", "lon": "139.759306", "name": "A2-19.猿楽町SSビル西", "capacity": "6", "region_id": "1", "station_id": "00010836" }, "geometry": { "type": "Point", "coordinates": [ 139.759306, 35.698641 ] } },
{ "type": "Feature", "properties": { "lat": "35.693408", "lon": "139.762809", "name": "A2-20.神田スクエア", "capacity": "19", "region_id": "1", "station_id": "00010900" }, "geometry": { "type": "Point", "coordinates": [ 139.762809, 35.693408 ] } },
{ "type": "Feature", "properties": { "lat": "35.694578", "lon": "139.754434", "name": "A2-21.神田神保町3丁目", "capacity": "8", "region_id": "1", "station_id": "00010935" }, "geometry": { "type": "Point", "coordinates": [ 139.754434, 35.694578 ] } },
{ "type": "Feature", "properties": { "lat": "35.696147", "lon": "139.753709", "name": "A2-22.専修大学", "capacity": "7", "region_id": "1", "station_id": "00010634" }, "geometry": { "type": "Point", "coordinates": [ 139.753709, 35.696147 ] } },
{ "type": "Feature", "properties": { "lat": "35.696126", "lon": "139.763297", "name": "A2-23.axle御茶ノ水", "capacity": "7", "region_id": "1", "station_id": "00010969" }, "geometry": { "type": "Point", "coordinates": [ 139.763297, 35.696126 ] } },
{ "type": "Feature", "properties": { "lat": "35.702271", "lon": "139.752619", "name": "A2-24.水道橋駅西口前", "capacity": "7", "region_id": "1", "station_id": "00011016" }, "geometry": { "type": "Point", "coordinates": [ 139.752619, 35.702271 ] } },
{ "type": "Feature", "properties": { "lat": "35.698991", "lon": "139.76091", "name": "A2-25.プラウド神田駿河台", "capacity": "19", "region_id": "1", "station_id": "00000168" }, "geometry": { "type": "Point", "coordinates": [ 139.76091, 35.698991 ] } },
{ "type": "Feature", "properties": { "lat": "35.690958", "lon": "139.759876", "name": "A2-27.丸紅ビル", "capacity": "9", "region_id": "1", "station_id": "00000490" }, "geometry": { "type": "Point", "coordinates": [ 139.759876, 35.690958 ] } },
{ "type": "Feature", "properties": { "lat": "35.6915", "lon": "139.75685", "name": "A2-28.NTTコミュニケーションズ一ツ橋ビル駐車場", "capacity": "14", "region_id": "1", "station_id": "00001082" }, "geometry": { "type": "Point", "coordinates": [ 139.75685, 35.6915 ] } },
{ "type": "Feature", "properties": { "lat": "35.692983", "lon": "139.76773", "name": "A3-01.神田児童公園（西側交番横）", "capacity": "6", "region_id": "1", "station_id": "00010013" }, "geometry": { "type": "Point", "coordinates": [ 139.76773, 35.692983 ] } },
{ "type": "Feature", "properties": { "lat": "35.689575", "lon": "139.767848", "name": "A3-02.絶滅メディア博物館（楓ビル）", "capacity": "8", "region_id": "1", "station_id": "00010014" }, "geometry": { "type": "Point", "coordinates": [ 139.767848, 35.689575 ] } },
{ "type": "Feature", "properties": { "lat": "35.697642", "lon": "139.774867", "name": "A3-04.秋葉原公園", "capacity": "18", "region_id": "1", "station_id": "00010016" }, "geometry": { "type": "Point", "coordinates": [ 139.774867, 35.697642 ] } },
{ "type": "Feature", "properties": { "lat": "35.698817", "lon": "139.778898", "name": "A3-05.和泉公園（西側入口）", "capacity": "7", "region_id": "1", "station_id": "00010017" }, "geometry": { "type": "Point", "coordinates": [ 139.778898, 35.698817 ] } },
{ "type": "Feature", "properties": { "lat": "35.696942", "lon": "139.767302", "name": "A3-07.淡路公園", "capacity": "9", "region_id": "1", "station_id": "00010035" }, "geometry": { "type": "Point", "coordinates": [ 139.767302, 35.696942 ] } },
{ "type": "Feature", "properties": { "lat": "35.702029", "lon": "139.768245", "name": "A3-08.神田明神（神田神社）", "capacity": "13", "region_id": "1", "station_id": "00010020" }, "geometry": { "type": "Point", "coordinates": [ 139.768245, 35.702029 ] } },
{ "type": "Feature", "properties": { "lat": "35.701978", "lon": "139.7698", "name": "A3-10.芳林公園（北側）", "capacity": "11", "region_id": "1", "station_id": "00010021" }, "geometry": { "type": "Point", "coordinates": [ 139.7698, 35.701978 ] } },
{ "type": "Feature", "properties": { "lat": "35.703735", "lon": "139.770629", "name": "A3-11.練成公園", "capacity": "10", "region_id": "1", "station_id": "00010022" }, "geometry": { "type": "Point", "coordinates": [ 139.770629, 35.703735 ] } },
{ "type": "Feature", "properties": { "lat": "35.70111", "lon": "139.772855", "name": "A3-12.秋葉原UDX北側駐輪場前", "capacity": "16", "region_id": "1", "station_id": "00010032" }, "geometry": { "type": "Point", "coordinates": [ 139.772855, 35.70111 ] } },
{ "type": "Feature", "properties": { "lat": "35.700486", "lon": "139.774254", "name": "A3-13.富士ソフトビル（駐車場入口横）", "capacity": "18", "region_id": "1", "station_id": "00010037" }, "geometry": { "type": "Point", "coordinates": [ 139.774254, 35.700486 ] } },
{ "type": "Feature", "properties": { "lat": "35.691069", "lon": "139.775376", "name": "A3-16.地蔵橋東児童遊園", "capacity": "6", "region_id": "1", "station_id": "00010141" }, "geometry": { "type": "Point", "coordinates": [ 139.775376, 35.691069 ] } },
{ "type": "Feature", "properties": { "lat": "35.69703", "lon": "139.779928", "name": "A3-18.美倉橋北児童遊園", "capacity": "5", "region_id": "1", "station_id": "00010143" }, "geometry": { "type": "Point", "coordinates": [ 139.779928, 35.69703 ] } },
{ "type": "Feature", "properties": { "lat": "35.694904", "lon": "139.772712", "name": "A3-19.神田ふれあい通り第１", "capacity": "5", "region_id": "1", "station_id": "00010170" }, "geometry": { "type": "Point", "coordinates": [ 139.772712, 35.694904 ] } },
{ "type": "Feature", "properties": { "lat": "35.695005", "lon": "139.772747", "name": "A3-20.神田ふれあい通り第２", "capacity": "2", "region_id": "1", "station_id": "00010171" }, "geometry": { "type": "Point", "coordinates": [ 139.772747, 35.695005 ] } },
{ "type": "Feature", "properties": { "lat": "35.695176000000004", "lon": "139.772832", "name": "A3-21.神田ふれあい通り第３", "capacity": "14", "region_id": "1", "station_id": "00010172" }, "geometry": { "type": "Point", "coordinates": [ 139.772832, 35.695176 ] } },
{ "type": "Feature", "properties": { "lat": "35.693234", "lon": "139.779702", "name": "A3-22.龍閑児童公園", "capacity": "8", "region_id": "1", "station_id": "00010173" }, "geometry": { "type": "Point", "coordinates": [ 139.779702, 35.693234 ] } },
{ "type": "Feature", "properties": { "lat": "35.69441", "lon": "139.777715", "name": "A3-24.岩本町ほほえみプラザ", "capacity": "4", "region_id": "1", "station_id": "00010175" }, "geometry": { "type": "Point", "coordinates": [ 139.777715, 35.69441 ] } },
{ "type": "Feature", "properties": { "lat": "35.692862", "lon": "139.770572", "name": "A3-25.神田駅北(神田警察通り)", "capacity": "9", "region_id": "1", "station_id": "00010194" }, "geometry": { "type": "Point", "coordinates": [ 139.770572, 35.692862 ] } },
{ "type": "Feature", "properties": { "lat": "35.698986", "lon": "139.774099", "name": "A3-27.秋葉原駅中央口（ヨドバシカメラ前）", "capacity": "9", "region_id": "1", "station_id": "00010302" }, "geometry": { "type": "Point", "coordinates": [ 139.774099, 35.698986 ] } },
{ "type": "Feature", "properties": { "lat": "35.699173", "lon": "139.772629", "name": "A3-28.秋葉原駅電気街口(西側交通広場)", "capacity": "5", "region_id": "1", "station_id": "00010303" }, "geometry": { "type": "Point", "coordinates": [ 139.772629, 35.699173 ] } },
{ "type": "Feature", "properties": { "lat": "35.694943", "lon": "139.782718", "name": "A3-36.クロックカフェ東神田", "capacity": "5", "region_id": "1", "station_id": "00010562" }, "geometry": { "type": "Point", "coordinates": [ 139.782718, 35.694943 ] } },
{ "type": "Feature", "properties": { "lat": "35.695737", "lon": "139.78162", "name": "A3-37.ポータル秋葉原", "capacity": "7", "region_id": "1", "station_id": "00010600" }, "geometry": { "type": "Point", "coordinates": [ 139.78162, 35.695737 ] } },
{ "type": "Feature", "properties": { "lat": "35.695163", "lon": "139.769566", "name": "A3-38.パークホームズ千代田淡路町", "capacity": "4", "region_id": "1", "station_id": "00010645" }, "geometry": { "type": "Point", "coordinates": [ 139.769566, 35.695163 ] } },
{ "type": "Feature", "properties": { "lat": "35.694834", "lon": "139.780333", "name": "A3-39.トーシン東神田ビル", "capacity": "4", "region_id": "1", "station_id": "00010672" }, "geometry": { "type": "Point", "coordinates": [ 139.780333, 35.694834 ] } },
{ "type": "Feature", "properties": { "lat": "35.698917", "lon": "139.771856", "name": "A3-41.秋葉原ダイビル", "capacity": "9", "region_id": "1", "station_id": "00010874" }, "geometry": { "type": "Point", "coordinates": [ 139.771856, 35.698917 ] } },
{ "type": "Feature", "properties": { "lat": "35.692599", "lon": "139.770109", "name": "A3-42.内神田3丁目", "capacity": "37", "region_id": "1", "station_id": "00010909" }, "geometry": { "type": "Point", "coordinates": [ 139.770109, 35.692599 ] } },
{ "type": "Feature", "properties": { "lat": "35.69474", "lon": "139.77929", "name": "A3-43.unito CHIYODA", "capacity": "3", "region_id": "1", "station_id": "00010949" }, "geometry": { "type": "Point", "coordinates": [ 139.77929, 35.69474 ] } },
{ "type": "Feature", "properties": { "lat": "35.694679", "lon": "139.779504", "name": "A3-44.THE WAVES AKIHABARA", "capacity": "4", "region_id": "1", "station_id": "00011026" }, "geometry": { "type": "Point", "coordinates": [ 139.779504, 35.694679 ] } },
{ "type": "Feature", "properties": { "lat": "35.691578", "lon": "139.77138", "name": "A3-45.鍛冶町2丁目", "capacity": "18", "region_id": "1", "station_id": "00001335" }, "geometry": { "type": "Point", "coordinates": [ 139.77138, 35.691578 ] } },
{ "type": "Feature", "properties": { "lat": "35.695457", "lon": "139.772972", "name": "A3-46.神田須田町2丁目", "capacity": "2", "region_id": "1", "station_id": "00001336" }, "geometry": { "type": "Point", "coordinates": [ 139.772972, 35.695457 ] } },
{ "type": "Feature", "properties": { "lat": "35.680514", "lon": "139.764002", "name": "A4-01.丸ビル（南側駐輪場）", "capacity": "9", "region_id": "1", "station_id": "00010023" }, "geometry": { "type": "Point", "coordinates": [ 139.764002, 35.680514 ] } },
{ "type": "Feature", "properties": { "lat": "35.686847", "lon": "139.765151", "name": "A4-02.東京サンケイビル", "capacity": "12", "region_id": "1", "station_id": "00010033" }, "geometry": { "type": "Point", "coordinates": [ 139.765151, 35.686847 ] } },
{ "type": "Feature", "properties": { "lat": "35.675843", "lon": "139.763329", "name": "A4-03.東京国際フォーラム（メトロD5出口）", "capacity": "7", "region_id": "1", "station_id": "00010024" }, "geometry": { "type": "Point", "coordinates": [ 139.763329, 35.675843 ] } },
{ "type": "Feature", "properties": { "lat": "35.685938", "lon": "139.764886", "name": "A4-05.大手町タワー", "capacity": "19", "region_id": "1", "station_id": "00010041" }, "geometry": { "type": "Point", "coordinates": [ 139.764886, 35.685938 ] } },
{ "type": "Feature", "properties": { "lat": "35.686037", "lon": "139.764472", "name": "A4-06.大手町ファーストスクエア", "capacity": "10", "region_id": "1", "station_id": "00010148" }, "geometry": { "type": "Point", "coordinates": [ 139.764472, 35.686037 ] } },
{ "type": "Feature", "properties": { "lat": "35.684349", "lon": "139.766958", "name": "A4-08.永代通り（大手町駅B2c出口前）", "capacity": "26", "region_id": "1", "station_id": "00010197" }, "geometry": { "type": "Point", "coordinates": [ 139.766958, 35.684349 ] } },
{ "type": "Feature", "properties": { "lat": "35.680753", "lon": "139.762069", "name": "A4-11.二重橋前駅(メトロ4番出口)", "capacity": "7", "region_id": "1", "station_id": "00010513" }, "geometry": { "type": "Point", "coordinates": [ 139.762069, 35.680753 ] } },
{ "type": "Feature", "properties": { "lat": "35.674274", "lon": "139.759111", "name": "A4-12.東京ミッドタウン日比谷", "capacity": "6", "region_id": "1", "station_id": "00010530" }, "geometry": { "type": "Point", "coordinates": [ 139.759111, 35.674274 ] } },
{ "type": "Feature", "properties": { "lat": "35.68557", "lon": "139.766929", "name": "A4-13.アーバンネット大手町ビル", "capacity": "8", "region_id": "1", "station_id": "00010851" }, "geometry": { "type": "Point", "coordinates": [ 139.766929, 35.68557 ] } },
{ "type": "Feature", "properties": { "lat": "35.675739", "lon": "139.763712", "name": "A4-14.東京国際フォーラム（有楽町駅ガード側）", "capacity": "7", "region_id": "1", "station_id": "00000491" }, "geometry": { "type": "Point", "coordinates": [ 139.763712, 35.675739 ] } },
{ "type": "Feature", "properties": { "lat": "35.686389", "lon": "139.769237", "name": "A4-15.TOKIWAブリッジ", "capacity": "10", "region_id": "1", "station_id": "00000631" }, "geometry": { "type": "Point", "coordinates": [ 139.769237, 35.686389 ] } },
{ "type": "Feature", "properties": { "lat": "35.673555", "lon": "139.741293", "name": "A5-02.山王パークタワー", "capacity": "9", "region_id": "1", "station_id": "00010019" }, "geometry": { "type": "Point", "coordinates": [ 139.741293, 35.673555 ] } },
{ "type": "Feature", "properties": { "lat": "35.677763", "lon": "139.74271", "name": "A5-03.参議院第二別館（永田町駅2番出口）", "capacity": "18", "region_id": "1", "station_id": "00010025" }, "geometry": { "type": "Point", "coordinates": [ 139.74271, 35.677763 ] } },
{ "type": "Feature", "properties": { "lat": "35.671514", "lon": "139.753952", "name": "A5-04.日比谷パークフロント前　日比谷公園南面向い歩道上", "capacity": "10", "region_id": "1", "station_id": "00010553" }, "geometry": { "type": "Point", "coordinates": [ 139.753952, 35.671514 ] } },
{ "type": "Feature", "properties": { "lat": "35.670452", "lon": "139.75557", "name": "A5-07.富国生命ビル", "capacity": "10", "region_id": "1", "station_id": "00010776" }, "geometry": { "type": "Point", "coordinates": [ 139.75557, 35.670452 ] } },
{ "type": "Feature", "properties": { "lat": "35.689879", "lon": "139.740178", "name": "A6-01.東郷元帥記念公園（南側）", "capacity": "6", "region_id": "1", "station_id": "00010026" }, "geometry": { "type": "Point", "coordinates": [ 139.740178, 35.689879 ] } },
{ "type": "Feature", "properties": { "lat": "35.687031", "lon": "139.739327", "name": "A6-02.いきいきプラザ一番町（西側駐輪場）", "capacity": "8", "region_id": "1", "station_id": "00010027" }, "geometry": { "type": "Point", "coordinates": [ 139.739327, 35.687031 ] } },
{ "type": "Feature", "properties": { "lat": "35.685966", "lon": "139.736328", "name": "A6-07.二番町センタービル", "capacity": "2", "region_id": "1", "station_id": "00010043" }, "geometry": { "type": "Point", "coordinates": [ 139.736328, 35.685966 ] } },
{ "type": "Feature", "properties": { "lat": "35.685489", "lon": "139.734562", "name": "A6-08.二番町ガーデン", "capacity": "6", "region_id": "1", "station_id": "00010044" }, "geometry": { "type": "Point", "coordinates": [ 139.734562, 35.685489 ] } },
{ "type": "Feature", "properties": { "lat": "35.682902", "lon": "139.736494", "name": "A6-09.紀尾井町ビル（北側）", "capacity": "6", "region_id": "1", "station_id": "00010125" }, "geometry": { "type": "Point", "coordinates": [ 139.736494, 35.682902 ] } },
{ "type": "Feature", "properties": { "lat": "35.682516", "lon": "139.736494", "name": "A6-10.紀尾井町ビル（西側）", "capacity": "12", "region_id": "1", "station_id": "00010126" }, "geometry": { "type": "Point", "coordinates": [ 139.736494, 35.682516 ] } },
{ "type": "Feature", "properties": { "lat": "35.67962", "lon": "139.7364", "name": "A6-11.東京ガーデンテラス紀尾井町", "capacity": "25", "region_id": "1", "station_id": "00010039" }, "geometry": { "type": "Point", "coordinates": [ 139.7364, 35.67962 ] } },
{ "type": "Feature", "properties": { "lat": "35.689131", "lon": "139.733071", "name": "A6-13.番町会館", "capacity": "6", "region_id": "1", "station_id": "00010426" }, "geometry": { "type": "Point", "coordinates": [ 139.733071, 35.689131 ] } },
{ "type": "Feature", "properties": { "lat": "35.690861", "lon": "139.736393", "name": "A6-14.MG市ヶ谷ビルディング", "capacity": "2", "region_id": "1", "station_id": "00010571" }, "geometry": { "type": "Point", "coordinates": [ 139.736393, 35.690861 ] } },
{ "type": "Feature", "properties": { "lat": "35.688929", "lon": "139.7358", "name": "A6-15.東急番町ビル", "capacity": "6", "region_id": "1", "station_id": "00010572" }, "geometry": { "type": "Point", "coordinates": [ 139.7358, 35.688929 ] } },
{ "type": "Feature", "properties": { "lat": "35.688351", "lon": "139.744321", "name": "A6-16.一番町第二TGビル", "capacity": "5", "region_id": "1", "station_id": "00010601" }, "geometry": { "type": "Point", "coordinates": [ 139.744321, 35.688351 ] } },
{ "type": "Feature", "properties": { "lat": "35.680431", "lon": "139.738203", "name": "A6-17.東京ガーデンテラス紀尾井町（プリンス通り側）", "capacity": "11", "region_id": "1", "station_id": "00010613" }, "geometry": { "type": "Point", "coordinates": [ 139.738203, 35.680431 ] } },
{ "type": "Feature", "properties": { "lat": "35.685578", "lon": "139.732078", "name": "A6-19.番町麹町ビルディング", "capacity": "12", "region_id": "1", "station_id": "00010642" }, "geometry": { "type": "Point", "coordinates": [ 139.732078, 35.685578 ] } },
{ "type": "Feature", "properties": { "lat": "35.68369", "lon": "139.736936", "name": "A6-20.紀尾井町PREX", "capacity": "7", "region_id": "1", "station_id": "00010768" }, "geometry": { "type": "Point", "coordinates": [ 139.736936, 35.68369 ] } },
{ "type": "Feature", "properties": { "lat": "35.684584", "lon": "139.734442", "name": "A6-21.日本工営ビル", "capacity": "5", "region_id": "1", "station_id": "00010919" }, "geometry": { "type": "Point", "coordinates": [ 139.734442, 35.684584 ] } },
{ "type": "Feature", "properties": { "lat": "35.683433", "lon": "139.740756", "name": "A6-22.半蔵門PREX South", "capacity": "14", "region_id": "1", "station_id": "00010906" }, "geometry": { "type": "Point", "coordinates": [ 139.740756, 35.683433 ] } },
{ "type": "Feature", "properties": { "lat": "35.689466", "lon": "139.745316", "name": "A6-23.セブン-イレブン 千代田三番町店", "capacity": "3", "region_id": "1", "station_id": "00010922" }, "geometry": { "type": "Point", "coordinates": [ 139.745316, 35.689466 ] } },
{ "type": "Feature", "properties": { "lat": "35.682218", "lon": "139.743292", "name": "A6-24.国立劇場", "capacity": "15", "region_id": "1", "station_id": "00010936" }, "geometry": { "type": "Point", "coordinates": [ 139.743292, 35.682218 ] } },
{ "type": "Feature", "properties": { "lat": "35.679192", "lon": "139.74019", "name": "A6-25.麹町仮住宅", "capacity": "4", "region_id": "1", "station_id": "00011036" }, "geometry": { "type": "Point", "coordinates": [ 139.74019, 35.679192 ] } },
{ "type": "Feature", "properties": { "lat": "35.683378", "lon": "139.743189", "name": "A6-26.相互半蔵門ビル", "capacity": "12", "region_id": "1", "station_id": "00001223" }, "geometry": { "type": "Point", "coordinates": [ 139.743189, 35.683378 ] } },
{ "type": "Feature", "properties": { "lat": "35.691058", "lon": "139.777915", "name": "B1-01.十思公園", "capacity": "10", "region_id": "2", "station_id": "00010047" }, "geometry": { "type": "Point", "coordinates": [ 139.777915, 35.691058 ] } },
{ "type": "Feature", "properties": { "lat": "35.688405", "lon": "139.770068", "name": "B1-03.常盤公園（北側）", "capacity": "12", "region_id": "2", "station_id": "00010049" }, "geometry": { "type": "Point", "coordinates": [ 139.770068, 35.688405 ] } },
{ "type": "Feature", "properties": { "lat": "35.694164", "lon": "139.787057", "name": "B1-04.産業会館", "capacity": "15", "region_id": "2", "station_id": "00010050" }, "geometry": { "type": "Point", "coordinates": [ 139.787057, 35.694164 ] } },
{ "type": "Feature", "properties": { "lat": "35.687419", "lon": "139.779053", "name": "B1-05.日本橋保健センター", "capacity": "5", "region_id": "2", "station_id": "00010051" }, "geometry": { "type": "Point", "coordinates": [ 139.779053, 35.687419 ] } },
{ "type": "Feature", "properties": { "lat": "35.687624", "lon": "139.777125", "name": "B1-06.伊場仙ビル", "capacity": "3", "region_id": "2", "station_id": "00010052" }, "geometry": { "type": "Point", "coordinates": [ 139.777125, 35.687624 ] } },
{ "type": "Feature", "properties": { "lat": "35.688038", "lon": "139.786561", "name": "B1-08.明治座", "capacity": "11", "region_id": "2", "station_id": "00010064" }, "geometry": { "type": "Point", "coordinates": [ 139.786561, 35.688038 ] } },
{ "type": "Feature", "properties": { "lat": "35.686101", "lon": "139.776089", "name": "B1-09.スマイルホテル日本橋三越前", "capacity": "18", "region_id": "2", "station_id": "00010130" }, "geometry": { "type": "Point", "coordinates": [ 139.776089, 35.686101 ] } },
{ "type": "Feature", "properties": { "lat": "35.680833", "lon": "139.784267", "name": "B1-10.箱崎川第二公園", "capacity": "19", "region_id": "2", "station_id": "00010137" }, "geometry": { "type": "Point", "coordinates": [ 139.784267, 35.680833 ] } },
{ "type": "Feature", "properties": { "lat": "35.684158", "lon": "139.787649", "name": "B1-11.浜町川緑道", "capacity": "49", "region_id": "2", "station_id": "00010139" }, "geometry": { "type": "Point", "coordinates": [ 139.787649, 35.684158 ] } },
{ "type": "Feature", "properties": { "lat": "35.687786", "lon": "139.78205", "name": "B1-12.ファミリーマート堀留町二丁目店", "capacity": "14", "region_id": "2", "station_id": "00010123" }, "geometry": { "type": "Point", "coordinates": [ 139.78205, 35.687786 ] } },
{ "type": "Feature", "properties": { "lat": "35.682332", "lon": "139.78722", "name": "B1-15.ロイヤルパークホテル", "capacity": "7", "region_id": "2", "station_id": "00010226" }, "geometry": { "type": "Point", "coordinates": [ 139.78722, 35.682332 ] } },
{ "type": "Feature", "properties": { "lat": "35.683695", "lon": "139.780043", "name": "B1-16.小網町児童遊園", "capacity": "6", "region_id": "2", "station_id": "00010316" }, "geometry": { "type": "Point", "coordinates": [ 139.780043, 35.683695 ] } },
{ "type": "Feature", "properties": { "lat": "35.681352", "lon": "139.781436", "name": "B1-18.セブン-イレブン 日本橋小網町店", "capacity": "4", "region_id": "2", "station_id": "00010447" }, "geometry": { "type": "Point", "coordinates": [ 139.781436, 35.681352 ] } },
{ "type": "Feature", "properties": { "lat": "35.688301", "lon": "139.768958", "name": "B1-20.竜閑さくら橋際街角広場", "capacity": "29", "region_id": "2", "station_id": "00010551" }, "geometry": { "type": "Point", "coordinates": [ 139.768958, 35.688301 ] } },
{ "type": "Feature", "properties": { "lat": "35.680861", "lon": "139.774493", "name": "B1-21.日本橋二丁目街角広場", "capacity": "11", "region_id": "2", "station_id": "00010564" }, "geometry": { "type": "Point", "coordinates": [ 139.774493, 35.680861 ] } },
{ "type": "Feature", "properties": { "lat": "35.679616", "lon": "139.784341", "name": "B1-23.NANAEI日本橋", "capacity": "8", "region_id": "2", "station_id": "00010828" }, "geometry": { "type": "Point", "coordinates": [ 139.784341, 35.679616 ] } },
{ "type": "Feature", "properties": { "lat": "35.68959", "lon": "139.78168", "name": "B1-24.SOHO30", "capacity": "4", "region_id": "2", "station_id": "00000286" }, "geometry": { "type": "Point", "coordinates": [ 139.78168, 35.68959 ] } },
{ "type": "Feature", "properties": { "lat": "35.68802", "lon": "139.78112", "name": "B1-26.intheHood 日本橋", "capacity": "5", "region_id": "2", "station_id": "00000565" }, "geometry": { "type": "Point", "coordinates": [ 139.78112, 35.68802 ] } },
{ "type": "Feature", "properties": { "lat": "35.68973", "lon": "139.77598", "name": "B1-27.日本橋本町4丁目", "capacity": "30", "region_id": "2", "station_id": "00000712" }, "geometry": { "type": "Point", "coordinates": [ 139.77598, 35.68973 ] } },
{ "type": "Feature", "properties": { "lat": "35.684502", "lon": "139.77906", "name": "B1-28.アイルイムーブル日本橋", "capacity": "10", "region_id": "2", "station_id": "00001083" }, "geometry": { "type": "Point", "coordinates": [ 139.77906, 35.684502 ] } },
{ "type": "Feature", "properties": { "lat": "35.67224", "lon": "139.779348", "name": "B2-01.鉄砲洲児童公園（西側）", "capacity": "8", "region_id": "2", "station_id": "00010053" }, "geometry": { "type": "Point", "coordinates": [ 139.779348, 35.67224 ] } },
{ "type": "Feature", "properties": { "lat": "35.676393", "lon": "139.768319", "name": "B2-02.柳通り（東京スクエアガーデン前）", "capacity": "21", "region_id": "2", "station_id": "00010054" }, "geometry": { "type": "Point", "coordinates": [ 139.768319, 35.676393 ] } },
{ "type": "Feature", "properties": { "lat": "35.673923", "lon": "139.778671", "name": "B2-03.男女平等センター（ブーケ21）", "capacity": "11", "region_id": "2", "station_id": "00010055" }, "geometry": { "type": "Point", "coordinates": [ 139.778671, 35.673923 ] } },
{ "type": "Feature", "properties": { "lat": "35.676119", "lon": "139.772895", "name": "B2-04.清水建設本社（都営地下鉄宝町駅 Ａ８出口）", "capacity": "20", "region_id": "2", "station_id": "00010056" }, "geometry": { "type": "Point", "coordinates": [ 139.772895, 35.676119 ] } },
{ "type": "Feature", "properties": { "lat": "35.670674", "lon": "139.775993", "name": "B2-05.ＮＴＴ東日本築地ビル", "capacity": "4", "region_id": "2", "station_id": "00010057" }, "geometry": { "type": "Point", "coordinates": [ 139.775993, 35.670674 ] } },
{ "type": "Feature", "properties": { "lat": "35.680864", "lon": "139.779331", "name": "B2-07.東京証券会館（北側）", "capacity": "5", "region_id": "2", "station_id": "00010066" }, "geometry": { "type": "Point", "coordinates": [ 139.779331, 35.680864 ] } },
{ "type": "Feature", "properties": { "lat": "35.681012", "lon": "139.778569", "name": "B2-08.共同ビル（茅場町交差点前）", "capacity": "13", "region_id": "2", "station_id": "00010067" }, "geometry": { "type": "Point", "coordinates": [ 139.778569, 35.681012 ] } },
{ "type": "Feature", "properties": { "lat": "35.680203", "lon": "139.778679", "name": "B2-09.茅場町一丁目平和ビル", "capacity": "12", "region_id": "2", "station_id": "00010068" }, "geometry": { "type": "Point", "coordinates": [ 139.778679, 35.680203 ] } },
{ "type": "Feature", "properties": { "lat": "35.675702", "lon": "139.785229", "name": "B2-10.東京ダイヤビルディング（北側）", "capacity": "5", "region_id": "2", "station_id": "00010214" }, "geometry": { "type": "Point", "coordinates": [ 139.785229, 35.675702 ] } },
{ "type": "Feature", "properties": { "lat": "35.677576", "lon": "139.769822", "name": "B2-11.京橋エドグラン", "capacity": "37", "region_id": "2", "station_id": "00010216" }, "geometry": { "type": "Point", "coordinates": [ 139.769822, 35.677576 ] } },
{ "type": "Feature", "properties": { "lat": "35.674835", "lon": "139.785656", "name": "B2-12.東京ダイヤビルディング（東側）", "capacity": "19", "region_id": "2", "station_id": "00010539" }, "geometry": { "type": "Point", "coordinates": [ 139.785656, 35.674835 ] } },
{ "type": "Feature", "properties": { "lat": "35.68168", "lon": "139.77825", "name": "B2-15.KABUTO ONE", "capacity": "24", "region_id": "2", "station_id": "00000384" }, "geometry": { "type": "Point", "coordinates": [ 139.77825, 35.68168 ] } },
{ "type": "Feature", "properties": { "lat": "35.67684", "lon": "139.77876", "name": "B2-16.ホテルサードニクス東京", "capacity": "7", "region_id": "2", "station_id": "00000407" }, "geometry": { "type": "Point", "coordinates": [ 139.77876, 35.67684 ] } },
{ "type": "Feature", "properties": { "lat": "35.67518", "lon": "139.77364", "name": "B2-17.アーバネックス八丁堀", "capacity": "3", "region_id": "2", "station_id": "00000480" }, "geometry": { "type": "Point", "coordinates": [ 139.77364, 35.67518 ] } },
{ "type": "Feature", "properties": { "lat": "35.678291", "lon": "139.78157", "name": "B2-18.旭ビルディング", "capacity": "12", "region_id": "2", "station_id": "00000764" }, "geometry": { "type": "Point", "coordinates": [ 139.78157, 35.678291 ] } },
{ "type": "Feature", "properties": { "lat": "35.670855", "lon": "139.772052", "name": "B3-01.中央区役所", "capacity": "6", "region_id": "2", "station_id": "00010045" }, "geometry": { "type": "Point", "coordinates": [ 139.772052, 35.670855 ] } },
{ "type": "Feature", "properties": { "lat": "35.670336", "lon": "139.771911", "name": "B3-02.サンクンガーデン", "capacity": "6", "region_id": "2", "station_id": "00010058" }, "geometry": { "type": "Point", "coordinates": [ 139.771911, 35.670336 ] } },
{ "type": "Feature", "properties": { "lat": "35.664265", "lon": "139.767426", "name": "B3-04.築地市場駅地下駐輪場", "capacity": "17", "region_id": "2", "station_id": "00010161" }, "geometry": { "type": "Point", "coordinates": [ 139.767426, 35.664265 ] } },
{ "type": "Feature", "properties": { "lat": "35.664457", "lon": "139.767214", "name": "B3-06.朝日新聞東京本社", "capacity": "7", "region_id": "2", "station_id": "00010169" }, "geometry": { "type": "Point", "coordinates": [ 139.767214, 35.664457 ] } },
{ "type": "Feature", "properties": { "lat": "35.66523", "lon": "139.776313", "name": "B3-09.築地永谷コーポラス", "capacity": "15", "region_id": "2", "station_id": "00010413" }, "geometry": { "type": "Point", "coordinates": [ 139.776313, 35.66523 ] } },
{ "type": "Feature", "properties": { "lat": "35.665254", "lon": "139.769301", "name": "B3-12.築地場外市場", "capacity": "20", "region_id": "2", "station_id": "00010641" }, "geometry": { "type": "Point", "coordinates": [ 139.769301, 35.665254 ] } },
{ "type": "Feature", "properties": { "lat": "35.664871", "lon": "139.767188", "name": "B3-13.国立がん研究センター", "capacity": "14", "region_id": "2", "station_id": "00010614" }, "geometry": { "type": "Point", "coordinates": [ 139.767188, 35.664871 ] } },
{ "type": "Feature", "properties": { "lat": "35.668845", "lon": "139.765144", "name": "B3-15.ACホテル・バイ・マリオット東京銀座", "capacity": "11", "region_id": "2", "station_id": "00010442" }, "geometry": { "type": "Point", "coordinates": [ 139.765144, 35.668845 ] } },
{ "type": "Feature", "properties": { "lat": "35.666001", "lon": "139.778102", "name": "B3-16.明石町区民館", "capacity": "8", "region_id": "2", "station_id": "00010952" }, "geometry": { "type": "Point", "coordinates": [ 139.778102, 35.666001 ] } },
{ "type": "Feature", "properties": { "lat": "35.66711", "lon": "139.76643", "name": "B3-17.銀座6丁目-SQUARE", "capacity": "32", "region_id": "2", "station_id": "00011021" }, "geometry": { "type": "Point", "coordinates": [ 139.76643, 35.66711 ] } },
{ "type": "Feature", "properties": { "lat": "35.668395", "lon": "139.769849", "name": "B3-18.銀座松竹スクエア", "capacity": "15", "region_id": "2", "station_id": "00000123" }, "geometry": { "type": "Point", "coordinates": [ 139.769849, 35.668395 ] } },
{ "type": "Feature", "properties": { "lat": "35.67363", "lon": "139.77623", "name": "B3-19.本の森ちゅうおう", "capacity": "10", "region_id": "2", "station_id": "00001215" }, "geometry": { "type": "Point", "coordinates": [ 139.77623, 35.67363 ] } },
{ "type": "Feature", "properties": { "lat": "35.670106", "lon": "139.768041", "name": "B3-20.歌舞伎座タワー駐輪場2F", "capacity": "11", "region_id": "2", "station_id": "00001434" }, "geometry": { "type": "Point", "coordinates": [ 139.768041, 35.670106 ] } },
{ "type": "Feature", "properties": { "lat": "35.6701", "lon": "139.76801", "name": "B3-21.歌舞伎座タワー駐輪場3F", "capacity": "11", "region_id": "2", "station_id": "00001435" }, "geometry": { "type": "Point", "coordinates": [ 139.76801, 35.6701 ] } },
{ "type": "Feature", "properties": { "lat": "35.656071", "lon": "139.780068", "name": "B4-01.黎明橋公園（駐輪場）", "capacity": "12", "region_id": "2", "station_id": "00010059" }, "geometry": { "type": "Point", "coordinates": [ 139.780068, 35.656071 ] } },
{ "type": "Feature", "properties": { "lat": "35.662197", "lon": "139.782719", "name": "B4-02.月島特別出張所", "capacity": "31", "region_id": "2", "station_id": "00010046" }, "geometry": { "type": "Point", "coordinates": [ 139.782719, 35.662197 ] } },
{ "type": "Feature", "properties": { "lat": "35.658665", "lon": "139.782553", "name": "B4-03.桜の散歩道（晴海トリトンスクエア前）", "capacity": "22", "region_id": "2", "station_id": "00010060" }, "geometry": { "type": "Point", "coordinates": [ 139.782553, 35.658665 ] } },
{ "type": "Feature", "properties": { "lat": "35.65443", "lon": "139.77843", "name": "B4-04.ＫＤＸ晴海ビル", "capacity": "10", "region_id": "2", "station_id": "00010061" }, "geometry": { "type": "Point", "coordinates": [ 139.77843, 35.65443 ] } },
{ "type": "Feature", "properties": { "lat": "35.654165", "lon": "139.781568", "name": "B4-05.ドコモ・バイクシェア晴海ポート", "capacity": "81", "region_id": "2", "station_id": "00010062" }, "geometry": { "type": "Point", "coordinates": [ 139.781568, 35.654165 ] } },
{ "type": "Feature", "properties": { "lat": "35.66291", "lon": "139.782564", "name": "B4-06.月島駅地下駐輪場", "capacity": "22", "region_id": "2", "station_id": "00010157" }, "geometry": { "type": "Point", "coordinates": [ 139.782564, 35.66291 ] } },
{ "type": "Feature", "properties": { "lat": "35.658135", "lon": "139.776131", "name": "B4-07.勝どき駅地下駐輪場", "capacity": "69", "region_id": "2", "station_id": "00010162" }, "geometry": { "type": "Point", "coordinates": [ 139.776131, 35.658135 ] } },
{ "type": "Feature", "properties": { "lat": "35.656449", "lon": "139.771302", "name": "B4-08.東京ミッドベイ勝どき（西仲通り）", "capacity": "18", "region_id": "2", "station_id": "00010163" }, "geometry": { "type": "Point", "coordinates": [ 139.771302, 35.656449 ] } },
{ "type": "Feature", "properties": { "lat": "35.668795", "lon": "139.784784", "name": "B4-10.リバーシティ", "capacity": "9", "region_id": "2", "station_id": "00010327" }, "geometry": { "type": "Point", "coordinates": [ 139.784784, 35.668795 ] } },
{ "type": "Feature", "properties": { "lat": "35.656565", "lon": "139.775073", "name": "B4-11.ダンスキューブ勝どき", "capacity": "10", "region_id": "2", "station_id": "00010339" }, "geometry": { "type": "Point", "coordinates": [ 139.775073, 35.656565 ] } },
{ "type": "Feature", "properties": { "lat": "35.655497", "lon": "139.774556", "name": "B4-12.THE TOKYO TOWERS", "capacity": "20", "region_id": "2", "station_id": "00010352" }, "geometry": { "type": "Point", "coordinates": [ 139.774556, 35.655497 ] } },
{ "type": "Feature", "properties": { "lat": "35.660526", "lon": "139.776816", "name": "B4-14.Brillia ist Tower 勝どき", "capacity": "14", "region_id": "2", "station_id": "00010708" }, "geometry": { "type": "Point", "coordinates": [ 139.776816, 35.660526 ] } },
{ "type": "Feature", "properties": { "lat": "35.669188", "lon": "139.785301", "name": "B4-15.リバーシティ　イーストタワーズ", "capacity": "12", "region_id": "2", "station_id": "00010764" }, "geometry": { "type": "Point", "coordinates": [ 139.785301, 35.669188 ] } },
{ "type": "Feature", "properties": { "lat": "35.653531", "lon": "139.769431", "name": "B4-18.豊海センタービル", "capacity": "6", "region_id": "2", "station_id": "00010879" }, "geometry": { "type": "Point", "coordinates": [ 139.769431, 35.653531 ] } },
{ "type": "Feature", "properties": { "lat": "35.668044", "lon": "139.785801", "name": "B4-19.コーシャタワー佃", "capacity": "7", "region_id": "2", "station_id": "00010934" }, "geometry": { "type": "Point", "coordinates": [ 139.785801, 35.668044 ] } },
{ "type": "Feature", "properties": { "lat": "35.663681", "lon": "139.785651", "name": "B4-21.月島駅前第一駐輪場", "capacity": "36", "region_id": "2", "station_id": "00010978" }, "geometry": { "type": "Point", "coordinates": [ 139.785651, 35.663681 ] } },
{ "type": "Feature", "properties": { "lat": "35.65554", "lon": "139.77102", "name": "B4-22.リビオレゾン勝どきNEX", "capacity": "9", "region_id": "2", "station_id": "00000161" }, "geometry": { "type": "Point", "coordinates": [ 139.77102, 35.65554 ] } },
{ "type": "Feature", "properties": { "lat": "35.653771", "lon": "139.769295", "name": "B4-23.交通広場（豊海町）", "capacity": "12", "region_id": "2", "station_id": "00000237" }, "geometry": { "type": "Point", "coordinates": [ 139.769295, 35.653771 ] } },
{ "type": "Feature", "properties": { "lat": "35.66297", "lon": "139.7833", "name": "B4-24.ミュプレ月島", "capacity": "8", "region_id": "2", "station_id": "00000635" }, "geometry": { "type": "Point", "coordinates": [ 139.7833, 35.66297 ] } },
{ "type": "Feature", "properties": { "lat": "35.668791", "lon": "139.753582", "name": "C1-02.西新橋1丁目（外堀通り）", "capacity": "6", "region_id": "3", "station_id": "00010070" }, "geometry": { "type": "Point", "coordinates": [ 139.753582, 35.668791 ] } },
{ "type": "Feature", "properties": { "lat": "35.666527", "lon": "139.748804", "name": "C1-04.虎ノ門ヒルズ", "capacity": "14", "region_id": "3", "station_id": "00010072" }, "geometry": { "type": "Point", "coordinates": [ 139.748804, 35.666527 ] } },
{ "type": "Feature", "properties": { "lat": "35.665593", "lon": "139.752617", "name": "C1-05.西新橋2丁目（新虎通り）", "capacity": "16", "region_id": "3", "station_id": "00010073" }, "geometry": { "type": "Point", "coordinates": [ 139.752617, 35.665593 ] } },
{ "type": "Feature", "properties": { "lat": "35.662051", "lon": "139.748132", "name": "C1-09.愛宕グリーンヒルズ", "capacity": "10", "region_id": "3", "station_id": "00010077" }, "geometry": { "type": "Point", "coordinates": [ 139.748132, 35.662051 ] } },
{ "type": "Feature", "properties": { "lat": "35.664461", "lon": "139.756082", "name": "C1-14.新橋プラザビル", "capacity": "7", "region_id": "3", "station_id": "00010088" }, "geometry": { "type": "Point", "coordinates": [ 139.756082, 35.664461 ] } },
{ "type": "Feature", "properties": { "lat": "35.657847", "lon": "139.745571", "name": "C1-15.東京タワー", "capacity": "19", "region_id": "3", "station_id": "00010087" }, "geometry": { "type": "Point", "coordinates": [ 139.745571, 35.657847 ] } },
{ "type": "Feature", "properties": { "lat": "35.659442", "lon": "139.745549", "name": "C1-16.機械振興会館", "capacity": "6", "region_id": "3", "station_id": "00010089" }, "geometry": { "type": "Point", "coordinates": [ 139.745549, 35.659442 ] } },
{ "type": "Feature", "properties": { "lat": "35.657866", "lon": "139.751068", "name": "C1-17.港区役所", "capacity": "5", "region_id": "3", "station_id": "00010075" }, "geometry": { "type": "Point", "coordinates": [ 139.751068, 35.657866 ] } },
{ "type": "Feature", "properties": { "lat": "35.657363", "lon": "139.75918", "name": "C1-21.汐留ビルディング", "capacity": "8", "region_id": "3", "station_id": "00010140" }, "geometry": { "type": "Point", "coordinates": [ 139.75918, 35.657363 ] } },
{ "type": "Feature", "properties": { "lat": "35.648637", "lon": "139.749834", "name": "C1-23.三田いきいきプラザ", "capacity": "5", "region_id": "3", "station_id": "00010145" }, "geometry": { "type": "Point", "coordinates": [ 139.749834, 35.648637 ] } },
{ "type": "Feature", "properties": { "lat": "35.653159", "lon": "139.744673", "name": "C1-24.三田国際ビル", "capacity": "10", "region_id": "3", "station_id": "00010151" }, "geometry": { "type": "Point", "coordinates": [ 139.744673, 35.653159 ] } },
{ "type": "Feature", "properties": { "lat": "35.668547", "lon": "139.747175", "name": "C1-27.虎ノ門2丁目タワー", "capacity": "14", "region_id": "3", "station_id": "00010192" }, "geometry": { "type": "Point", "coordinates": [ 139.747175, 35.668547 ] } },
{ "type": "Feature", "properties": { "lat": "35.664479", "lon": "139.743731", "name": "C1-34.城山ガーデン", "capacity": "9", "region_id": "3", "station_id": "00010313" }, "geometry": { "type": "Point", "coordinates": [ 139.743731, 35.664479 ] } },
{ "type": "Feature", "properties": { "lat": "35.649032", "lon": "139.750147", "name": "C1-35.セブン-イレブン 三田駅北店", "capacity": "4", "region_id": "3", "station_id": "00010353" }, "geometry": { "type": "Point", "coordinates": [ 139.750147, 35.649032 ] } },
{ "type": "Feature", "properties": { "lat": "35.665218", "lon": "139.750827", "name": "C1-37.KDX西新橋ビル（北側）", "capacity": "5", "region_id": "3", "station_id": "00010428" }, "geometry": { "type": "Point", "coordinates": [ 139.750827, 35.665218 ] } },
{ "type": "Feature", "properties": { "lat": "35.66495", "lon": "139.750459", "name": "C1-38.KDX西新橋ビル（西側）", "capacity": "5", "region_id": "3", "station_id": "00010429" }, "geometry": { "type": "Point", "coordinates": [ 139.750459, 35.66495 ] } },
{ "type": "Feature", "properties": { "lat": "35.658709", "lon": "139.757036", "name": "C1-41.港区立エコプラザ", "capacity": "9", "region_id": "3", "station_id": "00010466" }, "geometry": { "type": "Point", "coordinates": [ 139.757036, 35.658709 ] } },
{ "type": "Feature", "properties": { "lat": "35.658169", "lon": "139.752509", "name": "C1-43.KDX浜松町プレイス", "capacity": "8", "region_id": "3", "station_id": "00010577" }, "geometry": { "type": "Point", "coordinates": [ 139.752509, 35.658169 ] } },
{ "type": "Feature", "properties": { "lat": "35.64115", "lon": "139.741471", "name": "C1-44.三田Avanti", "capacity": "5", "region_id": "3", "station_id": "00010596" }, "geometry": { "type": "Point", "coordinates": [ 139.741471, 35.64115 ] } },
{ "type": "Feature", "properties": { "lat": "35.656324", "lon": "139.755927", "name": "C1-45.浜松町クレアタワー", "capacity": "20", "region_id": "3", "station_id": "00010607" }, "geometry": { "type": "Point", "coordinates": [ 139.755927, 35.656324 ] } },
{ "type": "Feature", "properties": { "lat": "35.665124", "lon": "139.754054", "name": "C1-46.新虎通りCORE", "capacity": "17", "region_id": "3", "station_id": "00010608" }, "geometry": { "type": "Point", "coordinates": [ 139.754054, 35.665124 ] } },
{ "type": "Feature", "properties": { "lat": "35.641791", "lon": "139.740734", "name": "C1-47.パークプレイス三田", "capacity": "9", "region_id": "3", "station_id": "00010620" }, "geometry": { "type": "Point", "coordinates": [ 139.740734, 35.641791 ] } },
{ "type": "Feature", "properties": { "lat": "35.655139", "lon": "139.762812", "name": "C1-48.竹芝客船ターミナル", "capacity": "17", "region_id": "3", "station_id": "00010628" }, "geometry": { "type": "Point", "coordinates": [ 139.762812, 35.655139 ] } },
{ "type": "Feature", "properties": { "lat": "35.666213", "lon": "139.760907", "name": "C1-49.汐留シティセンター", "capacity": "28", "region_id": "3", "station_id": "00010633" }, "geometry": { "type": "Point", "coordinates": [ 139.760907, 35.666213 ] } },
{ "type": "Feature", "properties": { "lat": "35.666075", "lon": "139.748008", "name": "C1-50.NTT虎ノ門ビル", "capacity": "16", "region_id": "3", "station_id": "00010671" }, "geometry": { "type": "Point", "coordinates": [ 139.748008, 35.666075 ] } },
{ "type": "Feature", "properties": { "lat": "35.663843", "lon": "139.757697", "name": "C1-51.環二新橋四丁目", "capacity": "14", "region_id": "3", "station_id": "00010720" }, "geometry": { "type": "Point", "coordinates": [ 139.757697, 35.663843 ] } },
{ "type": "Feature", "properties": { "lat": "35.652549", "lon": "139.747789", "name": "C1-52.NTT三田ビル", "capacity": "6", "region_id": "3", "station_id": "00010718" }, "geometry": { "type": "Point", "coordinates": [ 139.747789, 35.652549 ] } },
{ "type": "Feature", "properties": { "lat": "35.661149", "lon": "139.754612", "name": "C1-53.ホテルリブマックス新橋", "capacity": "4", "region_id": "3", "station_id": "00010731" }, "geometry": { "type": "Point", "coordinates": [ 139.754612, 35.661149 ] } },
{ "type": "Feature", "properties": { "lat": "35.664344", "lon": "139.746662", "name": "C1-54.ニッセイ虎ノ門ビル", "capacity": "8", "region_id": "3", "station_id": "00010755" }, "geometry": { "type": "Point", "coordinates": [ 139.746662, 35.664344 ] } },
{ "type": "Feature", "properties": { "lat": "35.669267", "lon": "139.756018", "name": "C1-55.アーバンネット内幸町ビル", "capacity": "20", "region_id": "3", "station_id": "00010837" }, "geometry": { "type": "Point", "coordinates": [ 139.756018, 35.669267 ] } },
{ "type": "Feature", "properties": { "lat": "35.654873", "lon": "139.762103", "name": "C1-56.鈴与竹芝ビル", "capacity": "6", "region_id": "3", "station_id": "00010838" }, "geometry": { "type": "Point", "coordinates": [ 139.762103, 35.654873 ] } },
{ "type": "Feature", "properties": { "lat": "35.667259", "lon": "139.745643", "name": "C1-57.虎ノ門ツインビルディング", "capacity": "12", "region_id": "3", "station_id": "00010868" }, "geometry": { "type": "Point", "coordinates": [ 139.745643, 35.667259 ] } },
{ "type": "Feature", "properties": { "lat": "35.655937", "lon": "139.763251", "name": "C1-58.ウォーターズ竹芝", "capacity": "10", "region_id": "3", "station_id": "00010948" }, "geometry": { "type": "Point", "coordinates": [ 139.763251, 35.655937 ] } },
{ "type": "Feature", "properties": { "lat": "35.650845", "lon": "139.748346", "name": "C1-59.セレスティン芝三井ビルディング", "capacity": "13", "region_id": "3", "station_id": "00010942" }, "geometry": { "type": "Point", "coordinates": [ 139.748346, 35.650845 ] } },
{ "type": "Feature", "properties": { "lat": "35.647659", "lon": "139.745055", "name": "C1-60.専売ビル", "capacity": "5", "region_id": "3", "station_id": "00010944" }, "geometry": { "type": "Point", "coordinates": [ 139.745055, 35.647659 ] } },
{ "type": "Feature", "properties": { "lat": "35.653096", "lon": "139.75739", "name": "C1-61.環三浜松町駅南", "capacity": "39", "region_id": "3", "station_id": "00010940" }, "geometry": { "type": "Point", "coordinates": [ 139.75739, 35.653096 ] } },
{ "type": "Feature", "properties": { "lat": "35.669941", "lon": "139.749261", "name": "C1-64.東京虎ノ門グローバルスクエア", "capacity": "5", "region_id": "3", "station_id": "00010950" }, "geometry": { "type": "Point", "coordinates": [ 139.749261, 35.669941 ] } },
{ "type": "Feature", "properties": { "lat": "35.654757", "lon": "139.761516", "name": "C1-65.東京ポートシティ竹芝", "capacity": "15", "region_id": "3", "station_id": "00010981" }, "geometry": { "type": "Point", "coordinates": [ 139.761516, 35.654757 ] } },
{ "type": "Feature", "properties": { "lat": "35.669228", "lon": "139.751668", "name": "C1-67.京阪神 虎ノ門ビル", "capacity": "23", "region_id": "3", "station_id": "00011000" }, "geometry": { "type": "Point", "coordinates": [ 139.751668, 35.669228 ] } },
{ "type": "Feature", "properties": { "lat": "35.665214", "lon": "139.757008", "name": "C1-68.桜田公園", "capacity": "30", "region_id": "3", "station_id": "00011034" }, "geometry": { "type": "Point", "coordinates": [ 139.757008, 35.665214 ] } },
{ "type": "Feature", "properties": { "lat": "35.662908", "lon": "139.755014", "name": "C1-69.塩釜公園", "capacity": "5", "region_id": "3", "station_id": "00011035" }, "geometry": { "type": "Point", "coordinates": [ 139.755014, 35.662908 ] } },
{ "type": "Feature", "properties": { "lat": "35.65583", "lon": "139.759896", "name": "C1-71.芝商業高校前交差点", "capacity": "6", "region_id": "3", "station_id": "00000194" }, "geometry": { "type": "Point", "coordinates": [ 139.759896, 35.65583 ] } },
{ "type": "Feature", "properties": { "lat": "35.646307", "lon": "139.746428", "name": "C1-72.新田町ビル", "capacity": "11", "region_id": "3", "station_id": "00000196" }, "geometry": { "type": "Point", "coordinates": [ 139.746428, 35.646307 ] } },
{ "type": "Feature", "properties": { "lat": "35.669871", "lon": "139.753147", "name": "C1-73.日比谷フォートタワー", "capacity": "14", "region_id": "3", "station_id": "00000283" }, "geometry": { "type": "Point", "coordinates": [ 139.753147, 35.669871 ] } },
{ "type": "Feature", "properties": { "lat": "35.645155", "lon": "139.744543", "name": "C1-74.札の辻スクエア", "capacity": "8", "region_id": "3", "station_id": "00000704" }, "geometry": { "type": "Point", "coordinates": [ 139.744543, 35.645155 ] } },
{ "type": "Feature", "properties": { "lat": "35.665466", "lon": "139.748014", "name": "C1-75.虎ノ門PFビル", "capacity": "8", "region_id": "3", "station_id": "00000765" }, "geometry": { "type": "Point", "coordinates": [ 139.748014, 35.665466 ] } },
{ "type": "Feature", "properties": { "lat": "35.656647", "lon": "139.758301", "name": "C1-76.浜松町駅北口交通広場(ハマサイト前)", "capacity": "18", "region_id": "3", "station_id": "00000760" }, "geometry": { "type": "Point", "coordinates": [ 139.758301, 35.656647 ] } },
{ "type": "Feature", "properties": { "lat": "35.65513", "lon": "139.749645", "name": "C1-77.芝公園", "capacity": "19", "region_id": "3", "station_id": "00001279" }, "geometry": { "type": "Point", "coordinates": [ 139.749645, 35.65513 ] } },
{ "type": "Feature", "properties": { "lat": "35.66646", "lon": "139.752138", "name": "C1-78.CIRCLES新橋", "capacity": "9", "region_id": "3", "station_id": "00001385" }, "geometry": { "type": "Point", "coordinates": [ 139.752138, 35.66646 ] } },
{ "type": "Feature", "properties": { "lat": "35.667107", "lon": "139.739565", "name": "C2-01.アークヒルズ（アーク森ビル）", "capacity": "12", "region_id": "3", "station_id": "00010080" }, "geometry": { "type": "Point", "coordinates": [ 139.739565, 35.667107 ] } },
{ "type": "Feature", "properties": { "lat": "35.661158", "lon": "139.728533", "name": "C2-02.六本木ヒルズ", "capacity": "16", "region_id": "3", "station_id": "00010082" }, "geometry": { "type": "Point", "coordinates": [ 139.728533, 35.661158 ] } },
{ "type": "Feature", "properties": { "lat": "35.666357", "lon": "139.73923", "name": "C2-03.アークヒルズサウスタワー", "capacity": "12", "region_id": "3", "station_id": "00010081" }, "geometry": { "type": "Point", "coordinates": [ 139.73923, 35.666357 ] } },
{ "type": "Feature", "properties": { "lat": "35.656991", "lon": "139.740739", "name": "C2-04.飯倉いきいきプラザ", "capacity": "4", "region_id": "3", "station_id": "00010131" }, "geometry": { "type": "Point", "coordinates": [ 139.740739, 35.656991 ] } },
{ "type": "Feature", "properties": { "lat": "35.651046", "lon": "139.727745", "name": "C2-05.ありすいきいきプラザ", "capacity": "12", "region_id": "3", "station_id": "00010132" }, "geometry": { "type": "Point", "coordinates": [ 139.727745, 35.651046 ] } },
{ "type": "Feature", "properties": { "lat": "35.661673", "lon": "139.721118", "name": "C2-08.ファミリーマート西麻布霞町店", "capacity": "7", "region_id": "3", "station_id": "00010124" }, "geometry": { "type": "Point", "coordinates": [ 139.721118, 35.661673 ] } },
{ "type": "Feature", "properties": { "lat": "35.660614", "lon": "139.734771", "name": "C2-09.麻布地区総合支所", "capacity": "2", "region_id": "3", "station_id": "00010204" }, "geometry": { "type": "Point", "coordinates": [ 139.734771, 35.660614 ] } },
{ "type": "Feature", "properties": { "lat": "35.655865", "lon": "139.730566", "name": "C2-10.元麻布三丁目", "capacity": "7", "region_id": "3", "station_id": "00010205" }, "geometry": { "type": "Point", "coordinates": [ 139.730566, 35.655865 ] } },
{ "type": "Feature", "properties": { "lat": "35.654726", "lon": "139.737491", "name": "C2-11.一の橋", "capacity": "49", "region_id": "3", "station_id": "00010219" }, "geometry": { "type": "Point", "coordinates": [ 139.737491, 35.654726 ] } },
{ "type": "Feature", "properties": { "lat": "35.66249", "lon": "139.741397", "name": "C2-12.六本木ファーストビル", "capacity": "14", "region_id": "3", "station_id": "00010252" }, "geometry": { "type": "Point", "coordinates": [ 139.741397, 35.66249 ] } },
{ "type": "Feature", "properties": { "lat": "35.651718", "lon": "139.728165", "name": "C2-13.麻布運動場", "capacity": "8", "region_id": "3", "station_id": "00010351" }, "geometry": { "type": "Point", "coordinates": [ 139.728165, 35.651718 ] } },
{ "type": "Feature", "properties": { "lat": "35.653608", "lon": "139.73138", "name": "C2-14.元麻布ヒルズ", "capacity": "10", "region_id": "3", "station_id": "00010356" }, "geometry": { "type": "Point", "coordinates": [ 139.73138, 35.653608 ] } },
{ "type": "Feature", "properties": { "lat": "35.664367", "lon": "139.737185", "name": "C2-15.住友不動産六本木グランドタワー", "capacity": "11", "region_id": "3", "station_id": "00010357" }, "geometry": { "type": "Point", "coordinates": [ 139.737185, 35.664367 ] } },
{ "type": "Feature", "properties": { "lat": "35.657264", "lon": "139.743821", "name": "C2-16.ザ・ベルグレイヴィア麻布", "capacity": "2", "region_id": "3", "station_id": "00010438" }, "geometry": { "type": "Point", "coordinates": [ 139.743821, 35.657264 ] } },
{ "type": "Feature", "properties": { "lat": "35.656769", "lon": "139.743224", "name": "C2-18.ブランシェ東麻布", "capacity": "3", "region_id": "3", "station_id": "00010756" }, "geometry": { "type": "Point", "coordinates": [ 139.743224, 35.656769 ] } },
{ "type": "Feature", "properties": { "lat": "35.650732", "lon": "139.72256", "name": "C2-19.広尾駅", "capacity": "8", "region_id": "3", "station_id": "00010800" }, "geometry": { "type": "Point", "coordinates": [ 139.72256, 35.650732 ] } },
{ "type": "Feature", "properties": { "lat": "35.66206", "lon": "139.735501", "name": "C2-20.三井ガーデンホテル六本木プレミア", "capacity": "5", "region_id": "3", "station_id": "00010880" }, "geometry": { "type": "Point", "coordinates": [ 139.735501, 35.66206 ] } },
{ "type": "Feature", "properties": { "lat": "35.655649", "lon": "139.74427", "name": "C2-22.飯倉公園", "capacity": "11", "region_id": "3", "station_id": "00000181" }, "geometry": { "type": "Point", "coordinates": [ 139.74427, 35.655649 ] } },
{ "type": "Feature", "properties": { "lat": "35.655135", "lon": "139.744449", "name": "C2-24.intheHood 東麻布", "capacity": "6", "region_id": "3", "station_id": "00000548" }, "geometry": { "type": "Point", "coordinates": [ 139.744449, 35.655135 ] } },
{ "type": "Feature", "properties": { "lat": "35.661783", "lon": "139.737242", "name": "C2-25.アパホテル＆リゾート＜六本木駅東＞", "capacity": "43", "region_id": "3", "station_id": "00001108" }, "geometry": { "type": "Point", "coordinates": [ 139.737242, 35.661783 ] } },
{ "type": "Feature", "properties": { "lat": "35.674788", "lon": "139.731423", "name": "C3-02.赤坂地区総合支所", "capacity": "3", "region_id": "3", "station_id": "00010127" }, "geometry": { "type": "Point", "coordinates": [ 139.731423, 35.674788 ] } },
{ "type": "Feature", "properties": { "lat": "35.67064", "lon": "139.728166", "name": "C3-06.ホテルアジア会館", "capacity": "10", "region_id": "3", "station_id": "00010152" }, "geometry": { "type": "Point", "coordinates": [ 139.728166, 35.67064 ] } },
{ "type": "Feature", "properties": { "lat": "35.672659", "lon": "139.725644", "name": "C3-07.新青山ビル", "capacity": "7", "region_id": "3", "station_id": "00010153" }, "geometry": { "type": "Point", "coordinates": [ 139.725644, 35.672659 ] } },
{ "type": "Feature", "properties": { "lat": "35.671791999999996", "lon": "139.733668", "name": "C3-08.赤坂パークビルヂング", "capacity": "6", "region_id": "3", "station_id": "00010154" }, "geometry": { "type": "Point", "coordinates": [ 139.733668, 35.671792 ] } },
{ "type": "Feature", "properties": { "lat": "35.670364", "lon": "139.744684", "name": "C3-10.ファミリーマート特許庁前店", "capacity": "6", "region_id": "3", "station_id": "00010165" }, "geometry": { "type": "Point", "coordinates": [ 139.744684, 35.670364 ] } },
{ "type": "Feature", "properties": { "lat": "35.676566", "lon": "139.737083", "name": "C3-11.赤坂見附南", "capacity": "2", "region_id": "3", "station_id": "00010195" }, "geometry": { "type": "Point", "coordinates": [ 139.737083, 35.676566 ] } },
{ "type": "Feature", "properties": { "lat": "35.676732", "lon": "139.733905", "name": "C3-12.赤坂センタービルディング前（青山通り）", "capacity": "9", "region_id": "3", "station_id": "00010198" }, "geometry": { "type": "Point", "coordinates": [ 139.733905, 35.676732 ] } },
{ "type": "Feature", "properties": { "lat": "35.6738", "lon": "139.731525", "name": "C3-16.赤坂ガーデンシティ", "capacity": "9", "region_id": "3", "station_id": "00010338" }, "geometry": { "type": "Point", "coordinates": [ 139.731525, 35.6738 ] } },
{ "type": "Feature", "properties": { "lat": "35.670308", "lon": "139.743242", "name": "C3-17.セブン-イレブン 港区溜池山王店", "capacity": "19", "region_id": "3", "station_id": "00010375" }, "geometry": { "type": "Point", "coordinates": [ 139.743242, 35.670308 ] } },
{ "type": "Feature", "properties": { "lat": "35.678509", "lon": "139.721207", "name": "C3-18.明治記念館", "capacity": "5", "region_id": "3", "station_id": "00010502" }, "geometry": { "type": "Point", "coordinates": [ 139.721207, 35.678509 ] } },
{ "type": "Feature", "properties": { "lat": "35.678179", "lon": "139.720809", "name": "C3-19.明治記念館西", "capacity": "5", "region_id": "3", "station_id": "00010503" }, "geometry": { "type": "Point", "coordinates": [ 139.720809, 35.678179 ] } },
{ "type": "Feature", "properties": { "lat": "35.674929", "lon": "139.736053", "name": "C3-22.OMO3東京赤坂 by 星野リゾート", "capacity": "8", "region_id": "3", "station_id": "00010552" }, "geometry": { "type": "Point", "coordinates": [ 139.736053, 35.674929 ] } },
{ "type": "Feature", "properties": { "lat": "35.669916", "lon": "139.725701", "name": "C3-23.LIFORK 南青山 北エントランス", "capacity": "30", "region_id": "3", "station_id": "00010609" }, "geometry": { "type": "Point", "coordinates": [ 139.725701, 35.669916 ] } },
{ "type": "Feature", "properties": { "lat": "35.668419", "lon": "139.724676", "name": "C3-24.SHARE GREEN 南青山 西エントランス", "capacity": "5", "region_id": "3", "station_id": "00010610" }, "geometry": { "type": "Point", "coordinates": [ 139.724676, 35.668419 ] } },
{ "type": "Feature", "properties": { "lat": "35.67011", "lon": "139.733375", "name": "C3-26.ホテルリブマックス赤坂", "capacity": "6", "region_id": "3", "station_id": "00010719" }, "geometry": { "type": "Point", "coordinates": [ 139.733375, 35.67011 ] } },
{ "type": "Feature", "properties": { "lat": "35.669742", "lon": "139.716025", "name": "C3-27.the ARGYLE aoyama", "capacity": "13", "region_id": "3", "station_id": "00010995" }, "geometry": { "type": "Point", "coordinates": [ 139.716025, 35.669742 ] } },
{ "type": "Feature", "properties": { "lat": "35.672477", "lon": "139.739743", "name": "C3-28.ヒューリックＪＰ赤坂ビル", "capacity": "10", "region_id": "3", "station_id": "00011013" }, "geometry": { "type": "Point", "coordinates": [ 139.739743, 35.672477 ] } },
{ "type": "Feature", "properties": { "lat": "35.674094", "lon": "139.728895", "name": "C3-29.高橋是清翁記念公園", "capacity": "7", "region_id": "3", "station_id": "00000309" }, "geometry": { "type": "Point", "coordinates": [ 139.728895, 35.674094 ] } },
{ "type": "Feature", "properties": { "lat": "35.672652", "lon": "139.738908", "name": "C3-30.東京赤坂NKビル (ヴィアインプライム赤坂)", "capacity": "7", "region_id": "3", "station_id": "00001062" }, "geometry": { "type": "Point", "coordinates": [ 139.738908, 35.672652 ] } },
{ "type": "Feature", "properties": { "lat": "35.670239", "lon": "139.744285", "name": "C3-31.赤坂一丁目", "capacity": "17", "region_id": "3", "station_id": "00001081" }, "geometry": { "type": "Point", "coordinates": [ 139.744285, 35.670239 ] } },
{ "type": "Feature", "properties": { "lat": "35.667936", "lon": "139.72745", "name": "C3-32.乃木公園", "capacity": "4", "region_id": "3", "station_id": "00001080" }, "geometry": { "type": "Point", "coordinates": [ 139.72745, 35.667936 ] } },
{ "type": "Feature", "properties": { "lat": "35.667462", "lon": "139.716058", "name": "C3-33.PASONA SQUARE", "capacity": "14", "region_id": "3", "station_id": "00001224" }, "geometry": { "type": "Point", "coordinates": [ 139.716058, 35.667462 ] } },
{ "type": "Feature", "properties": { "lat": "35.668622", "lon": "139.715957", "name": "C3-34.3rd MINAMI AOYAMA", "capacity": "6", "region_id": "3", "station_id": "00001386" }, "geometry": { "type": "Point", "coordinates": [ 139.715957, 35.668622 ] } },
{ "type": "Feature", "properties": { "lat": "35.667069", "lon": "139.713423", "name": "C3-35.ワールド北青山ビル", "capacity": "11", "region_id": "3", "station_id": "00001525" }, "geometry": { "type": "Point", "coordinates": [ 139.713423, 35.667069 ] } },
{ "type": "Feature", "properties": { "lat": "35.641833", "lon": "139.734519", "name": "C4-01.高輪地区総合支所(5F)", "capacity": "8", "region_id": "3", "station_id": "00010210" }, "geometry": { "type": "Point", "coordinates": [ 139.734519, 35.641833 ] } },
{ "type": "Feature", "properties": { "lat": "35.63756", "lon": "139.724981", "name": "C4-02.白金台いきいきプラザ", "capacity": "4", "region_id": "3", "station_id": "00010211" }, "geometry": { "type": "Point", "coordinates": [ 139.724981, 35.63756 ] } },
{ "type": "Feature", "properties": { "lat": "35.632128", "lon": "139.732097", "name": "C4-04.ショパン高輪", "capacity": "5", "region_id": "3", "station_id": "00010444" }, "geometry": { "type": "Point", "coordinates": [ 139.732097, 35.632128 ] } },
{ "type": "Feature", "properties": { "lat": "35.638927", "lon": "139.727083", "name": "C4-05.白金台駅自転車駐車場", "capacity": "15", "region_id": "3", "station_id": "00010540" }, "geometry": { "type": "Point", "coordinates": [ 139.727083, 35.638927 ] } },
{ "type": "Feature", "properties": { "lat": "35.644134", "lon": "139.723432", "name": "C4-06.白金プラチナレジデンス", "capacity": "8", "region_id": "3", "station_id": "00010825" }, "geometry": { "type": "Point", "coordinates": [ 139.723432, 35.644134 ] } },
{ "type": "Feature", "properties": { "lat": "35.628265999999996", "lon": "139.734171", "name": "C4-07.品川プリンスホテル", "capacity": "11", "region_id": "3", "station_id": "00010827" }, "geometry": { "type": "Point", "coordinates": [ 139.734171, 35.628266 ] } },
{ "type": "Feature", "properties": { "lat": "35.646375", "lon": "139.740061", "name": "C4-09.ケーヨーデイツー三田店", "capacity": "6", "region_id": "3", "station_id": "00010947" }, "geometry": { "type": "Point", "coordinates": [ 139.740061, 35.646375 ] } },
{ "type": "Feature", "properties": { "lat": "35.642764", "lon": "139.741174", "name": "C4-10.亀塚公園", "capacity": "10", "region_id": "3", "station_id": "00010989" }, "geometry": { "type": "Point", "coordinates": [ 139.741174, 35.642764 ] } },
{ "type": "Feature", "properties": { "lat": "35.64816", "lon": "139.737991", "name": "C4-11.ザ・パークハウス 三田ガーデン", "capacity": "11", "region_id": "3", "station_id": "00000437" }, "geometry": { "type": "Point", "coordinates": [ 139.737991, 35.64816 ] } },
{ "type": "Feature", "properties": { "lat": "35.637765", "lon": "139.739128", "name": "C4-13.コシダコネクトビル", "capacity": "13", "region_id": "3", "station_id": "00000706" }, "geometry": { "type": "Point", "coordinates": [ 139.739128, 35.637765 ] } },
{ "type": "Feature", "properties": { "lat": "35.643711", "lon": "139.724753", "name": "C4-14.神応ほっとプラザ", "capacity": "10", "region_id": "3", "station_id": "00001505" }, "geometry": { "type": "Point", "coordinates": [ 139.724753, 35.643711 ] } },
{ "type": "Feature", "properties": { "lat": "35.629697", "lon": "139.742167", "name": "C5-01.こうなん星の公園", "capacity": "111", "region_id": "3", "station_id": "00010078" }, "geometry": { "type": "Point", "coordinates": [ 139.742167, 35.629697 ] } },
{ "type": "Feature", "properties": { "lat": "35.628955", "lon": "139.750731", "name": "C5-02.港南緑水公園", "capacity": "46", "region_id": "3", "station_id": "00010079" }, "geometry": { "type": "Point", "coordinates": [ 139.750731, 35.628955 ] } },
{ "type": "Feature", "properties": { "lat": "35.624966", "lon": "139.746657", "name": "C5-03.港南公園C", "capacity": "26", "region_id": "3", "station_id": "00010085" }, "geometry": { "type": "Point", "coordinates": [ 139.746657, 35.624966 ] } },
{ "type": "Feature", "properties": { "lat": "35.646800999999996", "lon": "139.751208", "name": "C5-04.みなとパーク芝浦", "capacity": "12", "region_id": "3", "station_id": "00010086" }, "geometry": { "type": "Point", "coordinates": [ 139.751208, 35.646801 ] } },
{ "type": "Feature", "properties": { "lat": "35.632303", "lon": "139.742393", "name": "C5-06.品川シーズンテラス", "capacity": "21", "region_id": "3", "station_id": "00010135" }, "geometry": { "type": "Point", "coordinates": [ 139.742393, 35.632303 ] } },
{ "type": "Feature", "properties": { "lat": "35.632842", "lon": "139.7495", "name": "C5-07.港区立港南図書館", "capacity": "11", "region_id": "3", "station_id": "00010150" }, "geometry": { "type": "Point", "coordinates": [ 139.7495, 35.632842 ] } },
{ "type": "Feature", "properties": { "lat": "35.637366", "lon": "139.74844", "name": "C5-08.AQUACITY芝浦", "capacity": "12", "region_id": "3", "station_id": "00010155" }, "geometry": { "type": "Point", "coordinates": [ 139.74844, 35.637366 ] } },
{ "type": "Feature", "properties": { "lat": "35.643202", "lon": "139.746244", "name": "C5-09.グランパーク", "capacity": "21", "region_id": "3", "station_id": "00010156" }, "geometry": { "type": "Point", "coordinates": [ 139.746244, 35.643202 ] } },
{ "type": "Feature", "properties": { "lat": "35.649959", "lon": "139.756068", "name": "C5-10.シーバンス", "capacity": "15", "region_id": "3", "station_id": "00010166" }, "geometry": { "type": "Point", "coordinates": [ 139.756068, 35.649959 ] } },
{ "type": "Feature", "properties": { "lat": "35.631729", "lon": "139.749767", "name": "C5-11.フェイバリッチタワー品川", "capacity": "17", "region_id": "3", "station_id": "00010177" }, "geometry": { "type": "Point", "coordinates": [ 139.749767, 35.631729 ] } },
{ "type": "Feature", "properties": { "lat": "35.633742", "lon": "139.748281", "name": "C5-12.第2東運ビル", "capacity": "6", "region_id": "3", "station_id": "00010191" }, "geometry": { "type": "Point", "coordinates": [ 139.748281, 35.633742 ] } },
{ "type": "Feature", "properties": { "lat": "35.638245", "lon": "139.749754", "name": "C5-13.区立芝浦西運河沿緑地", "capacity": "42", "region_id": "3", "station_id": "00010203" }, "geometry": { "type": "Point", "coordinates": [ 139.749754, 35.638245 ] } },
{ "type": "Feature", "properties": { "lat": "35.640481", "lon": "139.753659", "name": "C5-14.セブン-イレブン 港区汐彩橋店", "capacity": "4", "region_id": "3", "station_id": "00010220" }, "geometry": { "type": "Point", "coordinates": [ 139.753659, 35.640481 ] } },
{ "type": "Feature", "properties": { "lat": "35.640215", "lon": "139.755971", "name": "C5-15.セブン-イレブン 港区芝浦ふ頭店", "capacity": "7", "region_id": "3", "station_id": "00010221" }, "geometry": { "type": "Point", "coordinates": [ 139.755971, 35.640215 ] } },
{ "type": "Feature", "properties": { "lat": "35.626704", "lon": "139.742174", "name": "C5-16.品川インターシティ", "capacity": "22", "region_id": "3", "station_id": "00010269" }, "geometry": { "type": "Point", "coordinates": [ 139.742174, 35.626704 ] } },
{ "type": "Feature", "properties": { "lat": "35.651103", "lon": "139.759092", "name": "C5-17.鈴与浜松町ビル", "capacity": "10", "region_id": "3", "station_id": "00010305" }, "geometry": { "type": "Point", "coordinates": [ 139.759092, 35.651103 ] } },
{ "type": "Feature", "properties": { "lat": "35.634529", "lon": "139.748378", "name": "C5-18.パークタワー品川ベイワード", "capacity": "20", "region_id": "3", "station_id": "00010319" }, "geometry": { "type": "Point", "coordinates": [ 139.748378, 35.634529 ] } },
{ "type": "Feature", "properties": { "lat": "35.645537", "lon": "139.754899", "name": "C5-19.グランドメゾン田町", "capacity": "8", "region_id": "3", "station_id": "00010321" }, "geometry": { "type": "Point", "coordinates": [ 139.754899, 35.645537 ] } },
{ "type": "Feature", "properties": { "lat": "35.645254", "lon": "139.754765", "name": "C5-20.ローソン芝浦二丁目店", "capacity": "4", "region_id": "3", "station_id": "00010330" }, "geometry": { "type": "Point", "coordinates": [ 139.754765, 35.645254 ] } },
{ "type": "Feature", "properties": { "lat": "35.642399", "lon": "139.746992", "name": "C5-21.セブン-イレブン 芝浦3丁目店", "capacity": "4", "region_id": "3", "station_id": "00010355" }, "geometry": { "type": "Point", "coordinates": [ 139.746992, 35.642399 ] } },
{ "type": "Feature", "properties": { "lat": "35.647713", "lon": "139.755534", "name": "C5-24.GLOBAL FRONT TOWER", "capacity": "17", "region_id": "3", "station_id": "00010480" }, "geometry": { "type": "Point", "coordinates": [ 139.755534, 35.647713 ] } },
{ "type": "Feature", "properties": { "lat": "35.639571", "lon": "139.755551", "name": "C5-25.NEX-TEC芝浦", "capacity": "38", "region_id": "3", "station_id": "00010544" }, "geometry": { "type": "Point", "coordinates": [ 139.755551, 35.639571 ] } },
{ "type": "Feature", "properties": { "lat": "35.644155", "lon": "139.756216", "name": "C5-26.ピアシティ芝浦ビル", "capacity": "14", "region_id": "3", "station_id": "00010555" }, "geometry": { "type": "Point", "coordinates": [ 139.756216, 35.644155 ] } },
{ "type": "Feature", "properties": { "lat": "35.648948", "lon": "139.757895", "name": "C5-27.プレミア海岸ビル", "capacity": "19", "region_id": "3", "station_id": "00010576" }, "geometry": { "type": "Point", "coordinates": [ 139.757895, 35.648948 ] } },
{ "type": "Feature", "properties": { "lat": "35.643683", "lon": "139.7506", "name": "C5-28.芝浦ルネサイトタワー", "capacity": "8", "region_id": "3", "station_id": "00010785" }, "geometry": { "type": "Point", "coordinates": [ 139.7506, 35.643683 ] } },
{ "type": "Feature", "properties": { "lat": "35.651672", "lon": "139.760549", "name": "C5-29.Hi-NODE(ハイノード)", "capacity": "8", "region_id": "3", "station_id": "00010833" }, "geometry": { "type": "Point", "coordinates": [ 139.760549, 35.651672 ] } },
{ "type": "Feature", "properties": { "lat": "35.647872", "lon": "139.75391", "name": "C5-30.フェイム芝浦インターウェーブ", "capacity": "12", "region_id": "3", "station_id": "00010852" }, "geometry": { "type": "Point", "coordinates": [ 139.75391, 35.647872 ] } },
{ "type": "Feature", "properties": { "lat": "35.626267", "lon": "139.771438", "name": "C5-31.ヒルトン東京お台場", "capacity": "13", "region_id": "3", "station_id": "00010865" }, "geometry": { "type": "Point", "coordinates": [ 139.771438, 35.626267 ] } },
{ "type": "Feature", "properties": { "lat": "35.627891", "lon": "139.776896", "name": "C5-32.トレードピアお台場", "capacity": "10", "region_id": "3", "station_id": "00010878" }, "geometry": { "type": "Point", "coordinates": [ 139.776896, 35.627891 ] } },
{ "type": "Feature", "properties": { "lat": "35.645682", "lon": "139.748768", "name": "C5-33.msb Tamachi", "capacity": "4", "region_id": "3", "station_id": "00010884" }, "geometry": { "type": "Point", "coordinates": [ 139.748768, 35.645682 ] } },
{ "type": "Feature", "properties": { "lat": "35.636644", "lon": "139.751798", "name": "C5-34.五色橋ビル", "capacity": "4", "region_id": "3", "station_id": "00010920" }, "geometry": { "type": "Point", "coordinates": [ 139.751798, 35.636644 ] } },
{ "type": "Feature", "properties": { "lat": "35.62822", "lon": "139.741135", "name": "C5-35.品川駅港南口", "capacity": "5", "region_id": "3", "station_id": "00010970" }, "geometry": { "type": "Point", "coordinates": [ 139.741135, 35.62822 ] } },
{ "type": "Feature", "properties": { "lat": "35.62974", "lon": "139.778178", "name": "C5-36.お台場海浜公園駅", "capacity": "9", "region_id": "3", "station_id": "00010100" }, "geometry": { "type": "Point", "coordinates": [ 139.778178, 35.62974 ] } },
{ "type": "Feature", "properties": { "lat": "35.626388", "lon": "139.772453", "name": "C5-37.台場駅", "capacity": "22", "region_id": "3", "station_id": "00010106" }, "geometry": { "type": "Point", "coordinates": [ 139.772453, 35.626388 ] } },
{ "type": "Feature", "properties": { "lat": "35.628743", "lon": "139.773915", "name": "C5-38.お台場海浜公園乗船場", "capacity": "9", "region_id": "3", "station_id": "00010118" }, "geometry": { "type": "Point", "coordinates": [ 139.773915, 35.628743 ] } },
{ "type": "Feature", "properties": { "lat": "35.631021", "lon": "139.778109", "name": "C5-39.お台場海浜公園東", "capacity": "15", "region_id": "3", "station_id": "00010119" }, "geometry": { "type": "Point", "coordinates": [ 139.778109, 35.631021 ] } },
{ "type": "Feature", "properties": { "lat": "35.64096", "lon": "139.75754", "name": "C5-40.芝浦ふ頭駅前暫定自転車駐車場", "capacity": "5", "region_id": "3", "station_id": "00000350" }, "geometry": { "type": "Point", "coordinates": [ 139.75754, 35.64096 ] } },
{ "type": "Feature", "properties": { "lat": "35.639644", "lon": "139.745532", "name": "C5-41.トヨタモビリティ東京 芝浦店", "capacity": "7", "region_id": "3", "station_id": "00000399" }, "geometry": { "type": "Point", "coordinates": [ 139.745532, 35.639644 ] } },
{ "type": "Feature", "properties": { "lat": "35.644241", "lon": "139.753834", "name": "C5-42.DHC芝浦2丁目ビル", "capacity": "9", "region_id": "3", "station_id": "00000398" }, "geometry": { "type": "Point", "coordinates": [ 139.753834, 35.644241 ] } },
{ "type": "Feature", "properties": { "lat": "35.644798", "lon": "139.752697", "name": "C5-43.オアーゼ芝浦MJビル", "capacity": "9", "region_id": "3", "station_id": "00000485" }, "geometry": { "type": "Point", "coordinates": [ 139.752697, 35.644798 ] } },
{ "type": "Feature", "properties": { "lat": "35.643105", "lon": "139.753039", "name": "C5-44.ブランズタワー芝浦", "capacity": "9", "region_id": "3", "station_id": "00000519" }, "geometry": { "type": "Point", "coordinates": [ 139.753039, 35.643105 ] } },
{ "type": "Feature", "properties": { "lat": "35.644794", "lon": "139.755688", "name": "C5-45.パークアクシス芝浦キャナル", "capacity": "10", "region_id": "3", "station_id": "00000549" }, "geometry": { "type": "Point", "coordinates": [ 139.755688, 35.644794 ] } },
{ "type": "Feature", "properties": { "lat": "35.630961", "lon": "139.746875", "name": "C5-46.ウエリスアーバン品川タワー", "capacity": "12", "region_id": "3", "station_id": "00000707" }, "geometry": { "type": "Point", "coordinates": [ 139.746875, 35.630961 ] } },
{ "type": "Feature", "properties": { "lat": "35.62413", "lon": "139.744831", "name": "C5-47.oak港南品川", "capacity": "25", "region_id": "3", "station_id": "00000972" }, "geometry": { "type": "Point", "coordinates": [ 139.744831, 35.62413 ] } },
{ "type": "Feature", "properties": { "lat": "35.636808", "lon": "139.752517", "name": "C5-48.セブンイレブン港区海岸三丁目店", "capacity": "7", "region_id": "3", "station_id": "00001433" }, "geometry": { "type": "Point", "coordinates": [ 139.752517, 35.636808 ] } },
{ "type": "Feature", "properties": { "lat": "35.638912", "lon": "139.747422", "name": "C5-49.プラウドタワー芝浦", "capacity": "8", "region_id": "3", "station_id": "00001481" }, "geometry": { "type": "Point", "coordinates": [ 139.747422, 35.638912 ] } },
{ "type": "Feature", "properties": { "lat": "35.633133", "lon": "139.777315", "name": "C5-50.お台場レインボー公園", "capacity": "15", "region_id": "3", "station_id": "00001566" }, "geometry": { "type": "Point", "coordinates": [ 139.777315, 35.633133 ] } },
{ "type": "Feature", "properties": { "lat": "35.690612", "lon": "139.711631", "name": "D1-01.花園西公園", "capacity": "4", "region_id": "5", "station_id": "00010178" }, "geometry": { "type": "Point", "coordinates": [ 139.711631, 35.690612 ] } },
{ "type": "Feature", "properties": { "lat": "35.687435", "lon": "139.714169", "name": "D1-02.四谷特別出張所（新宿御苑大木戸門前）", "capacity": "17", "region_id": "5", "station_id": "00010179" }, "geometry": { "type": "Point", "coordinates": [ 139.714169, 35.687435 ] } },
{ "type": "Feature", "properties": { "lat": "35.684523", "lon": "139.720519", "name": "D1-03.新左門児童遊園", "capacity": "5", "region_id": "5", "station_id": "00010180" }, "geometry": { "type": "Point", "coordinates": [ 139.720519, 35.684523 ] } },
{ "type": "Feature", "properties": { "lat": "35.683448", "lon": "139.728425", "name": "D1-04.四谷見附公園", "capacity": "16", "region_id": "5", "station_id": "00010181" }, "geometry": { "type": "Point", "coordinates": [ 139.728425, 35.683448 ] } },
{ "type": "Feature", "properties": { "lat": "35.681754", "lon": "139.715256", "name": "D1-06.四谷第六小学校北", "capacity": "10", "region_id": "5", "station_id": "00010336" }, "geometry": { "type": "Point", "coordinates": [ 139.715256, 35.681754 ] } },
{ "type": "Feature", "properties": { "lat": "35.689757", "lon": "139.710091", "name": "D1-07.Belleビル", "capacity": "4", "region_id": "5", "station_id": "00010490" }, "geometry": { "type": "Point", "coordinates": [ 139.710091, 35.689757 ] } },
{ "type": "Feature", "properties": { "lat": "35.689984", "lon": "139.725261", "name": "D1-08.新宿歴史博物館", "capacity": "5", "region_id": "5", "station_id": "00010514" }, "geometry": { "type": "Point", "coordinates": [ 139.725261, 35.689984 ] } },
{ "type": "Feature", "properties": { "lat": "35.691188", "lon": "139.712079", "name": "D1-09.NTT四谷ビル", "capacity": "2", "region_id": "5", "station_id": "00010534" }, "geometry": { "type": "Point", "coordinates": [ 139.712079, 35.691188 ] } },
{ "type": "Feature", "properties": { "lat": "35.691888", "lon": "139.724365", "name": "D1-10.曙橋駐輪場", "capacity": "16", "region_id": "5", "station_id": "00010625" }, "geometry": { "type": "Point", "coordinates": [ 139.724365, 35.691888 ] } },
{ "type": "Feature", "properties": { "lat": "35.679807", "lon": "139.715931", "name": "D1-11.三井ガーデンホテル神宮外苑の杜プレミア", "capacity": "5", "region_id": "5", "station_id": "00010871" }, "geometry": { "type": "Point", "coordinates": [ 139.715931, 35.679807 ] } },
{ "type": "Feature", "properties": { "lat": "35.689017", "lon": "139.714755", "name": "D1-12.ジェノヴィア新宿御苑グリーンヴェール", "capacity": "9", "region_id": "5", "station_id": "00010885" }, "geometry": { "type": "Point", "coordinates": [ 139.714755, 35.689017 ] } },
{ "type": "Feature", "properties": { "lat": "35.688945", "lon": "139.706536", "name": "D1-13.新宿御苑新宿門【西側】", "capacity": "12", "region_id": "5", "station_id": "00000134" }, "geometry": { "type": "Point", "coordinates": [ 139.706536, 35.688945 ] } },
{ "type": "Feature", "properties": { "lat": "35.68752", "lon": "139.72818", "name": "D1-14.コモレ四谷", "capacity": "6", "region_id": "5", "station_id": "00000153" }, "geometry": { "type": "Point", "coordinates": [ 139.72818, 35.68752 ] } },
{ "type": "Feature", "properties": { "lat": "35.68768", "lon": "139.71937", "name": "D1-15.フロンティア四谷", "capacity": "9", "region_id": "5", "station_id": "00000856" }, "geometry": { "type": "Point", "coordinates": [ 139.71937, 35.68768 ] } },
{ "type": "Feature", "properties": { "lat": "35.690155", "lon": "139.713377", "name": "D1-16.ルネ新宿御苑タワー", "capacity": "10", "region_id": "5", "station_id": "00001142" }, "geometry": { "type": "Point", "coordinates": [ 139.713377, 35.690155 ] } },
{ "type": "Feature", "properties": { "lat": "35.702286", "lon": "139.741093", "name": "D2-01.あずさセンタービル", "capacity": "18", "region_id": "5", "station_id": "00010217" }, "geometry": { "type": "Point", "coordinates": [ 139.741093, 35.702286 ] } },
{ "type": "Feature", "properties": { "lat": "35.70057", "lon": "139.74301", "name": "D2-06.飯田濠", "capacity": "14", "region_id": "5", "station_id": "00010304" }, "geometry": { "type": "Point", "coordinates": [ 139.74301, 35.70057 ] } },
{ "type": "Feature", "properties": { "lat": "35.70074", "lon": "139.731363", "name": "D2-08.旧市ヶ谷商業高校", "capacity": "7", "region_id": "5", "station_id": "00010350" }, "geometry": { "type": "Point", "coordinates": [ 139.731363, 35.70074 ] } },
{ "type": "Feature", "properties": { "lat": "35.700993", "lon": "139.736355", "name": "D2-09.セブン-イレブン 新宿岩戸町店", "capacity": "3", "region_id": "5", "station_id": "00010422" }, "geometry": { "type": "Point", "coordinates": [ 139.736355, 35.700993 ] } },
{ "type": "Feature", "properties": { "lat": "35.696242", "lon": "139.735776", "name": "D2-10.市谷砂土原町3丁目", "capacity": "12", "region_id": "5", "station_id": "00010629" }, "geometry": { "type": "Point", "coordinates": [ 139.735776, 35.696242 ] } },
{ "type": "Feature", "properties": { "lat": "35.702833", "lon": "139.739", "name": "D2-11.神楽坂アインスタワー", "capacity": "13", "region_id": "5", "station_id": "00010644" }, "geometry": { "type": "Point", "coordinates": [ 139.739, 35.702833 ] } },
{ "type": "Feature", "properties": { "lat": "35.705774", "lon": "139.743366", "name": "D2-12.ヴィアイン飯田橋後楽園", "capacity": "7", "region_id": "5", "station_id": "00010725" }, "geometry": { "type": "Point", "coordinates": [ 139.743366, 35.705774 ] } },
{ "type": "Feature", "properties": { "lat": "35.695645999999996", "lon": "139.725722", "name": "D2-13.THE CENTER TOKYO", "capacity": "7", "region_id": "5", "station_id": "00010821" }, "geometry": { "type": "Point", "coordinates": [ 139.725722, 35.695646 ] } },
{ "type": "Feature", "properties": { "lat": "35.704201", "lon": "139.735815", "name": "D2-14.ローソン 神楽坂駅北店", "capacity": "6", "region_id": "5", "station_id": "00010846" }, "geometry": { "type": "Point", "coordinates": [ 139.735815, 35.704201 ] } },
{ "type": "Feature", "properties": { "lat": "35.698728", "lon": "139.733319", "name": "D2-15.ロードス神楽坂ホテル", "capacity": "7", "region_id": "5", "station_id": "00010914" }, "geometry": { "type": "Point", "coordinates": [ 139.733319, 35.698728 ] } },
{ "type": "Feature", "properties": { "lat": "35.690657", "lon": "139.73255", "name": "D2-17.genten市ヶ谷店", "capacity": "10", "region_id": "5", "station_id": "00000492" }, "geometry": { "type": "Point", "coordinates": [ 139.73255, 35.690657 ] } },
{ "type": "Feature", "properties": { "lat": "35.712431", "lon": "139.715418", "name": "D3-03.甘泉園公園", "capacity": "3", "region_id": "5", "station_id": "00010280" }, "geometry": { "type": "Point", "coordinates": [ 139.715418, 35.712431 ] } },
{ "type": "Feature", "properties": { "lat": "35.706182", "lon": "139.723394", "name": "D3-04.鶴巻南公園", "capacity": "9", "region_id": "5", "station_id": "00010281" }, "geometry": { "type": "Point", "coordinates": [ 139.723394, 35.706182 ] } },
{ "type": "Feature", "properties": { "lat": "35.713872", "lon": "139.698301", "name": "D3-06.セブン-イレブン高田馬場3丁目中央店", "capacity": "6", "region_id": "5", "station_id": "00010460" }, "geometry": { "type": "Point", "coordinates": [ 139.698301, 35.713872 ] } },
{ "type": "Feature", "properties": { "lat": "35.71429", "lon": "139.70507", "name": "D3-07.戸塚特別出張所", "capacity": "6", "region_id": "5", "station_id": "00010478" }, "geometry": { "type": "Point", "coordinates": [ 139.70507, 35.71429 ] } },
{ "type": "Feature", "properties": { "lat": "35.712952", "lon": "139.701356", "name": "D3-08.ホテルリブマックス高田馬場駅前", "capacity": "7", "region_id": "5", "station_id": "00010726" }, "geometry": { "type": "Point", "coordinates": [ 139.701356, 35.712952 ] } },
{ "type": "Feature", "properties": { "lat": "35.712545", "lon": "139.713319", "name": "D3-09.西早稲田3丁目", "capacity": "4", "region_id": "5", "station_id": "00010787" }, "geometry": { "type": "Point", "coordinates": [ 139.713319, 35.712545 ] } },
{ "type": "Feature", "properties": { "lat": "35.705405", "lon": "139.730311", "name": "D3-13.ダーウィン神楽坂", "capacity": "10", "region_id": "5", "station_id": "00000189" }, "geometry": { "type": "Point", "coordinates": [ 139.730311, 35.705405 ] } },
{ "type": "Feature", "properties": { "lat": "35.712413", "lon": "139.70168", "name": "D3-14.コーシャハイム高田馬場", "capacity": "6", "region_id": "5", "station_id": "00000318" }, "geometry": { "type": "Point", "coordinates": [ 139.70168, 35.712413 ] } },
{ "type": "Feature", "properties": { "lat": "35.711324", "lon": "139.711976", "name": "D3-15.カースルいずみ", "capacity": "14", "region_id": "5", "station_id": "00000973" }, "geometry": { "type": "Point", "coordinates": [ 139.711976, 35.711324 ] } },
{ "type": "Feature", "properties": { "lat": "35.708734", "lon": "139.730509", "name": "D3-16.セジョリ江戸川橋", "capacity": "15", "region_id": "5", "station_id": "00001048" }, "geometry": { "type": "Point", "coordinates": [ 139.730509, 35.708734 ] } },
{ "type": "Feature", "properties": { "lat": "35.695102", "lon": "139.723345", "name": "D4-01.市谷仲之町", "capacity": "7", "region_id": "5", "station_id": "00010693" }, "geometry": { "type": "Point", "coordinates": [ 139.723345, 35.695102 ] } },
{ "type": "Feature", "properties": { "lat": "35.694927", "lon": "139.731328", "name": "D4-02.JICA市ヶ谷ビル（地球ひろば／研究所）", "capacity": "7", "region_id": "5", "station_id": "00010697" }, "geometry": { "type": "Point", "coordinates": [ 139.731328, 35.694927 ] } },
{ "type": "Feature", "properties": { "lat": "35.695636", "lon": "139.727882", "name": "D4-03.市谷加賀町2丁目", "capacity": "5", "region_id": "5", "station_id": "00010698" }, "geometry": { "type": "Point", "coordinates": [ 139.727882, 35.695636 ] } },
{ "type": "Feature", "properties": { "lat": "35.700033", "lon": "139.71983", "name": "D4-04.ジェノヴィア新宿早稲田グリーンヴェール", "capacity": "5", "region_id": "5", "station_id": "00010845" }, "geometry": { "type": "Point", "coordinates": [ 139.71983, 35.700033 ] } },
{ "type": "Feature", "properties": { "lat": "35.700732", "lon": "139.711472", "name": "D4-05.カスタリア新宿7丁目", "capacity": "6", "region_id": "5", "station_id": "00010895" }, "geometry": { "type": "Point", "coordinates": [ 139.711472, 35.700732 ] } },
{ "type": "Feature", "properties": { "lat": "35.697143", "lon": "139.718739", "name": "D4-06.グリーンフォート河田", "capacity": "8", "region_id": "5", "station_id": "00010988" }, "geometry": { "type": "Point", "coordinates": [ 139.718739, 35.697143 ] } },
{ "type": "Feature", "properties": { "lat": "35.698512", "lon": "139.716482", "name": "D4-07.新宿余丁町ビル", "capacity": "5", "region_id": "5", "station_id": "00000109" }, "geometry": { "type": "Point", "coordinates": [ 139.716482, 35.698512 ] } },
{ "type": "Feature", "properties": { "lat": "35.69617", "lon": "139.722021", "name": "D4-09.トミンハイム仲之町", "capacity": "4", "region_id": "5", "station_id": "00000931" }, "geometry": { "type": "Point", "coordinates": [ 139.722021, 35.69617 ] } },
{ "type": "Feature", "properties": { "lat": "35.696585", "lon": "139.713081", "name": "D4-10.東新宿ポート(余丁町6番)", "capacity": "6", "region_id": "5", "station_id": "00001109" }, "geometry": { "type": "Point", "coordinates": [ 139.713081, 35.696585 ] } },
{ "type": "Feature", "properties": { "lat": "35.705244", "lon": "139.70841", "name": "D5-01.新宿コズミックセンター", "capacity": "7", "region_id": "5", "station_id": "00010225" }, "geometry": { "type": "Point", "coordinates": [ 139.70841, 35.705244 ] } },
{ "type": "Feature", "properties": { "lat": "35.702288", "lon": "139.68862", "name": "D5-03.北新宿公園", "capacity": "3", "region_id": "5", "station_id": "00010282" }, "geometry": { "type": "Point", "coordinates": [ 139.68862, 35.702288 ] } },
{ "type": "Feature", "properties": { "lat": "35.707388", "lon": "139.700204", "name": "D5-04.西戸山公園野球場", "capacity": "7", "region_id": "5", "station_id": "00010283" }, "geometry": { "type": "Point", "coordinates": [ 139.700204, 35.707388 ] } },
{ "type": "Feature", "properties": { "lat": "35.705018", "lon": "139.706841", "name": "D5-05.中央図書館", "capacity": "16", "region_id": "5", "station_id": "00010292" }, "geometry": { "type": "Point", "coordinates": [ 139.706841, 35.705018 ] } },
{ "type": "Feature", "properties": { "lat": "35.699252", "lon": "139.697606", "name": "D5-07.セブン-イレブン 新宿大久保駅南口店", "capacity": "7", "region_id": "5", "station_id": "00010445" }, "geometry": { "type": "Point", "coordinates": [ 139.697606, 35.699252 ] } },
{ "type": "Feature", "properties": { "lat": "35.704597", "lon": "139.708397", "name": "D5-08.ウエリス新宿早稲田の森", "capacity": "8", "region_id": "5", "station_id": "00010588" }, "geometry": { "type": "Point", "coordinates": [ 139.708397, 35.704597 ] } },
{ "type": "Feature", "properties": { "lat": "35.702277", "lon": "139.701214", "name": "D5-09.ハウジングステージ新宿", "capacity": "15", "region_id": "5", "station_id": "00010766" }, "geometry": { "type": "Point", "coordinates": [ 139.701214, 35.702277 ] } },
{ "type": "Feature", "properties": { "lat": "35.705154", "lon": "139.697562", "name": "D5-10.桜美林大学 新宿キャンパス", "capacity": "8", "region_id": "5", "station_id": "00010811" }, "geometry": { "type": "Point", "coordinates": [ 139.697562, 35.705154 ] } },
{ "type": "Feature", "properties": { "lat": "35.699312", "lon": "139.696468", "name": "D5-11.NTTコミュニケーションズ新宿ビル", "capacity": "9", "region_id": "5", "station_id": "00010866" }, "geometry": { "type": "Point", "coordinates": [ 139.696468, 35.699312 ] } },
{ "type": "Feature", "properties": { "lat": "35.693602", "lon": "139.703229", "name": "D6-01.新宿区役所本庁舎", "capacity": "48", "region_id": "5", "station_id": "00010184" }, "geometry": { "type": "Point", "coordinates": [ 139.703229, 35.693602 ] } },
{ "type": "Feature", "properties": { "lat": "35.693976", "lon": "139.706134", "name": "D6-02.新宿区役所第二分庁舎", "capacity": "36", "region_id": "5", "station_id": "00010185" }, "geometry": { "type": "Point", "coordinates": [ 139.706134, 35.693976 ] } },
{ "type": "Feature", "properties": { "lat": "35.691559", "lon": "139.690029", "name": "D6-03.新宿中央公園（ポケットパーク）", "capacity": "11", "region_id": "5", "station_id": "00010186" }, "geometry": { "type": "Point", "coordinates": [ 139.690029, 35.691559 ] } },
{ "type": "Feature", "properties": { "lat": "35.686649", "lon": "139.689821", "name": "D6-04.新宿中央公園（ちびっこ広場）", "capacity": "10", "region_id": "5", "station_id": "00010187" }, "geometry": { "type": "Point", "coordinates": [ 139.689821, 35.686649 ] } },
{ "type": "Feature", "properties": { "lat": "35.690474", "lon": "139.690219", "name": "D6-05.新宿中央公園（水の広場）", "capacity": "6", "region_id": "5", "station_id": "00010188" }, "geometry": { "type": "Point", "coordinates": [ 139.690219, 35.690474 ] } },
{ "type": "Feature", "properties": { "lat": "35.691199", "lon": "139.687966", "name": "D6-06.新宿中央公園（エコギャラリー下）", "capacity": "12", "region_id": "5", "station_id": "00010296" }, "geometry": { "type": "Point", "coordinates": [ 139.687966, 35.691199 ] } },
{ "type": "Feature", "properties": { "lat": "35.696387", "lon": "139.689924", "name": "D6-07.新宿フロントタワー", "capacity": "12", "region_id": "5", "station_id": "00010189" }, "geometry": { "type": "Point", "coordinates": [ 139.689924, 35.696387 ] } },
{ "type": "Feature", "properties": { "lat": "35.697158", "lon": "139.707887", "name": "D6-08.新宿イーストサイドスクエア", "capacity": "7", "region_id": "5", "station_id": "00010190" }, "geometry": { "type": "Point", "coordinates": [ 139.707887, 35.697158 ] } },
{ "type": "Feature", "properties": { "lat": "35.694201", "lon": "139.707047", "name": "D6-10.ホテルサンライト新宿", "capacity": "2", "region_id": "5", "station_id": "00010200" }, "geometry": { "type": "Point", "coordinates": [ 139.707047, 35.694201 ] } },
{ "type": "Feature", "properties": { "lat": "35.693029", "lon": "139.711327", "name": "D6-11.ホテルリステル新宿", "capacity": "3", "region_id": "5", "station_id": "00010201" }, "geometry": { "type": "Point", "coordinates": [ 139.711327, 35.693029 ] } },
{ "type": "Feature", "properties": { "lat": "35.69342", "lon": "139.710568", "name": "D6-12.東京ビジネスホテル", "capacity": "5", "region_id": "5", "station_id": "00010202" }, "geometry": { "type": "Point", "coordinates": [ 139.710568, 35.69342 ] } },
{ "type": "Feature", "properties": { "lat": "35.687652", "lon": "139.689254", "name": "D6-13.新宿中央公園（ジャブジャブ池下）", "capacity": "9", "region_id": "5", "station_id": "00010284" }, "geometry": { "type": "Point", "coordinates": [ 139.689254, 35.687652 ] } },
{ "type": "Feature", "properties": { "lat": "35.689529", "lon": "139.695995", "name": "D6-14.新宿ファーストウエスト", "capacity": "14", "region_id": "5", "station_id": "00010297" }, "geometry": { "type": "Point", "coordinates": [ 139.695995, 35.689529 ] } },
{ "type": "Feature", "properties": { "lat": "35.69465", "lon": "139.695911", "name": "D6-15.住友不動産西新宿ビル", "capacity": "11", "region_id": "5", "station_id": "00010298" }, "geometry": { "type": "Point", "coordinates": [ 139.695911, 35.69465 ] } },
{ "type": "Feature", "properties": { "lat": "35.689689", "lon": "139.698231", "name": "D6-18.ヨドバシカメラ 新宿西口本店前", "capacity": "7", "region_id": "5", "station_id": "00010743" }, "geometry": { "type": "Point", "coordinates": [ 139.698231, 35.689689 ] } },
{ "type": "Feature", "properties": { "lat": "35.693373", "lon": "139.686508", "name": "D6-19.西新宿五丁目中央", "capacity": "32", "region_id": "5", "station_id": "00010744" }, "geometry": { "type": "Point", "coordinates": [ 139.686508, 35.693373 ] } },
{ "type": "Feature", "properties": { "lat": "35.693544", "lon": "139.685806", "name": "D6-20.淀橋けやき橋公園", "capacity": "16", "region_id": "5", "station_id": "00010753" }, "geometry": { "type": "Point", "coordinates": [ 139.685806, 35.693544 ] } },
{ "type": "Feature", "properties": { "lat": "35.691613", "lon": "139.711233", "name": "D6-21.新宿5丁目", "capacity": "7", "region_id": "5", "station_id": "00010767" }, "geometry": { "type": "Point", "coordinates": [ 139.711233, 35.691613 ] } },
{ "type": "Feature", "properties": { "lat": "35.697535", "lon": "139.703633", "name": "D6-23.アパホテル 東新宿 歌舞伎町西", "capacity": "9", "region_id": "5", "station_id": "00010826" }, "geometry": { "type": "Point", "coordinates": [ 139.703633, 35.697535 ] } },
{ "type": "Feature", "properties": { "lat": "35.683102", "lon": "139.688852", "name": "D6-24.ＮＴＴ東日本 本社ビル", "capacity": "12", "region_id": "5", "station_id": "00010917" }, "geometry": { "type": "Point", "coordinates": [ 139.688852, 35.683102 ] } },
{ "type": "Feature", "properties": { "lat": "35.689755", "lon": "139.701323", "name": "D6-25.新宿駅東南口自転車駐輪場", "capacity": "31", "region_id": "5", "station_id": "00010926" }, "geometry": { "type": "Point", "coordinates": [ 139.701323, 35.689755 ] } },
{ "type": "Feature", "properties": { "lat": "35.694951", "lon": "139.708219", "name": "D6-26.セブン-イレブン新宿６丁目文化センター通り店", "capacity": "10", "region_id": "5", "station_id": "00010956" }, "geometry": { "type": "Point", "coordinates": [ 139.708219, 35.694951 ] } },
{ "type": "Feature", "properties": { "lat": "35.686334", "lon": "139.692881", "name": "D6-27.新宿三井ビルディング二号館", "capacity": "8", "region_id": "5", "station_id": "00010972" }, "geometry": { "type": "Point", "coordinates": [ 139.692881, 35.686334 ] } },
{ "type": "Feature", "properties": { "lat": "35.690899", "lon": "139.706348", "name": "D6-28.東急ステイ新宿", "capacity": "10", "region_id": "5", "station_id": "00000212" }, "geometry": { "type": "Point", "coordinates": [ 139.706348, 35.690899 ] } },
{ "type": "Feature", "properties": { "lat": "35.688735", "lon": "139.692249", "name": "D6-29.都庁第二本庁舎前", "capacity": "14", "region_id": "5", "station_id": "00000458" }, "geometry": { "type": "Point", "coordinates": [ 139.692249, 35.688735 ] } },
{ "type": "Feature", "properties": { "lat": "35.6897", "lon": "139.694823", "name": "D6-30.京王プラザホテル", "capacity": "7", "region_id": "5", "station_id": "00000459" }, "geometry": { "type": "Point", "coordinates": [ 139.694823, 35.6897 ] } },
{ "type": "Feature", "properties": { "lat": "35.696207", "lon": "139.700521", "name": "D6-31.東急歌舞伎町タワー駐輪場", "capacity": "10", "region_id": "5", "station_id": "00001526" }, "geometry": { "type": "Point", "coordinates": [ 139.700521, 35.696207 ] } },
{ "type": "Feature", "properties": { "lat": "35.715894", "lon": "139.698578", "name": "D7-01.下落合図書館", "capacity": "16", "region_id": "5", "station_id": "00010274" }, "geometry": { "type": "Point", "coordinates": [ 139.698578, 35.715894 ] } },
{ "type": "Feature", "properties": { "lat": "35.722202", "lon": "139.691712", "name": "D7-02.セブン-イレブン 新宿中落合3丁目店", "capacity": "27", "region_id": "5", "station_id": "00010307" }, "geometry": { "type": "Point", "coordinates": [ 139.691712, 35.722202 ] } },
{ "type": "Feature", "properties": { "lat": "35.715645", "lon": "139.687486", "name": "D7-03.中井駅北", "capacity": "31", "region_id": "5", "station_id": "00010348" }, "geometry": { "type": "Point", "coordinates": [ 139.687486, 35.715645 ] } },
{ "type": "Feature", "properties": { "lat": "35.722645", "lon": "139.701982", "name": "D7-04.セブン-イレブン 新宿下落合3丁目店", "capacity": "4", "region_id": "5", "station_id": "00010409" }, "geometry": { "type": "Point", "coordinates": [ 139.701982, 35.722645 ] } },
{ "type": "Feature", "properties": { "lat": "35.725818", "lon": "139.678976", "name": "D7-05.西落合図書館", "capacity": "8", "region_id": "5", "station_id": "00010477" }, "geometry": { "type": "Point", "coordinates": [ 139.678976, 35.725818 ] } },
{ "type": "Feature", "properties": { "lat": "35.721064", "lon": "139.677128", "name": "D7-06.エムアイセミナーハウス", "capacity": "5", "region_id": "5", "station_id": "00010575" }, "geometry": { "type": "Point", "coordinates": [ 139.677128, 35.721064 ] } },
{ "type": "Feature", "properties": { "lat": "35.725171", "lon": "139.675897", "name": "D7-07.ローソン 新宿西落合三丁目店", "capacity": "11", "region_id": "5", "station_id": "00010602" }, "geometry": { "type": "Point", "coordinates": [ 139.675897, 35.725171 ] } },
{ "type": "Feature", "properties": { "lat": "35.71115", "lon": "139.68232", "name": "D7-08.上落合3丁目", "capacity": "14", "region_id": "5", "station_id": "00010709" },