lat,lon,name,address,station_id,parking_hoop,parking_type,contact_phone,is_charging_station,rental_uris.ios,rental_uris.web,rental_uris.android,vehicle_type_capacity.num_bikes_now,vehicle_type_capacity.num_bikes_limit,vehicle_type_capacity.num_bikes_parkable,vehicle_type_capacity.num_bikes_rentalable
35.707252,139.777587,新御徒町ステーション,東京都台東区台東４丁目３１－１,17,False,street_parking,+8105038218282,False,https://www.hellocycling.jp/app/port/detail/17?referrer=odpt,https://www.hellocycling.jp/app/port/detail/17?referrer=odpt,https://www.hellocycling.jp/app/port/detail/17?referrer=odpt,0,8,8,0
35.844371034915,139.65882343225,【ベルシェア】ベルニクステクニカルセンター,埼玉県さいたま市南区根岸５丁目６－１,26,False,street_parking,+8105038218282,True,https://www.hellocycling.jp/app/port/detail/26?referrer=odpt,https://www.hellocycling.jp/app/port/detail/26?referrer=odpt,https://www.hellocycling.jp/app/port/detail/26?referrer=odpt,7,10,3,5
35.890588,139.730801,イオンモール浦和美園（線路側）,埼玉県さいたま市緑区美園5-50-1,39,False,street_parking,+8105038218282,False,https://www.hellocycling.jp/app/port/detail/39?referrer=odpt,https://www.hellocycling.jp/app/port/detail/39?referrer=odpt,https://www.hellocycling.jp/app/port/detail/39?referrer=odpt,6,7,1,6
35.892394,139.730709,イオンモール浦和美園（北）,埼玉県さいたま市緑区美園5-50-1,40,False,street_parking,+8105038218282,False,https://www.hellocycling.jp/app/port/detail/40?referrer=odpt,https://www.hellocycling.jp/app/port/detail/40?referrer=odpt,https://www.hellocycling.jp/app/port/detail/40?referrer=odpt,6,7,1,6
35.889631,139.718152,美園公民館前,埼玉県さいたま市緑区大門1973-1,41,False,street_parking,+8105038218282,False,https://www.hellocycling.jp/app/port/detail/41?referrer=odpt,https://www.hellocycling.jp/app/port/detail/41?referrer=odpt,https://www.hellocycling.jp/app/port/detail/41?referrer=odpt,0,4,4,0
35.6546215,139.7597654,seesaw,東京都港区海岸1-4-22,75,False,street_parking,+8105038218282,False,https://www.hellocycling.jp/app/port/detail/75?referrer=odpt,https://www.hellocycling.jp/app/port/detail/75?referrer=odpt,https://www.hellocycling.jp/app/port/detail/75?referrer=odpt,10,12,2,9
35.681758,139.578239,ダイシャリン 三鷹店,東京都三鷹市北野2-6-42,76,False,street_parking,+8105038218282,False,https://www.hellocycling.jp/app/port/detail/76?referrer=odpt,https://www.hellocycling.jp/app/port/detail/76?referrer=odpt,https://www.hellocycling.jp/app/port/detail/76?referrer=odpt,3,3,0,2
35.734776,139.694862,ダイシャリン 池袋店,東京都豊島区要町1-24-5,77,False,street_parking,+8105038218282,False,https://www.hellocycling.jp/app/port/detail/77?referrer=odpt,https://www.hellocycling.jp/app/port/detail/77?referrer=odpt,https://www.hellocycling.jp/app/port/detail/77?referrer=odpt,2,4,2,1
35.707615,139.737392,ダイシャリン 江戸川橋駅店,東京都新宿区西五軒町9-2,79,False,street_parking,+8105038218282,False,https://www.hellocycling.jp/app/port/detail/79?referrer=odpt,https://www.hellocycling.jp/app/port/detail/79?referrer=odpt,https://www.hellocycling.jp/app/port/detail/79?referrer=odpt,0,3,3,0
35.670067,139.477258,ダイシャリン 府中店,東京都府中市宮西町2-8-6,81,False,street_parking,+8105038218282,False,https://www.hellocycling.jp/app/port/detail/81?referrer=odpt,https://www.hellocycling.jp/app/port/detail/81?referrer=odpt,https://www.hellocycling.jp/app/port/detail/81?referrer=odpt,2,3,1,2
35.748608593213,139.58446249366,サイクルスポット大泉学園店,東京都練馬区東大泉6-51-4,110,False,street_parking,+8105038218282,False,https://www.hellocycling.jp/app/port/detail/110?referrer=odpt,https://www.hellocycling.jp/app/port/detail/110?referrer=odpt,https://www.hellocycling.jp/app/port/detail/110?referrer=odpt,2,4,2,2
35.636521,139.588661,サイクルスポット喜多見店,東京都世田谷区喜多見8-17-10,112,False,street_parking,+8105038218282,False,https://www.hellocycling.jp/app/port/detail/112?referrer=odpt,https://www.hellocycling.jp/app/port/detail/112?referrer=odpt,https://www.hellocycling.jp/app/port/detail/112?referrer=odpt,2,2,0,1
35.626882,139.643571,サイクルスポット桜新町店,東京都世田谷区桜新町1-33-2,118,False,street_parking,+8105038218282,False,https://www.hellocycling.jp/app/port/detail/118?referrer=odpt,https://www.hellocycling.jp/app/port/detail/118?referrer=odpt,https://www.hellocycling.jp/app/port/detail/118?referrer=odpt,0,4,4,0
35.70339,139.561673,【ベルシェア】高木ビル　三鷹,東京都武蔵野市中町一丁目15番5号,142,False,street_parking,+8105038218282,True,https://www.hellocycling.jp/app/port/detail/142?referrer=odpt,https://www.hellocycling.jp/app/port/detail/142?referrer=odpt,https://www.hellocycling.jp/app/port/detail/142?referrer=odpt,5,7,2,3
34.952484,137.166438,東岡崎駅前,愛知県岡崎市明大寺本町,161,False,street_parking,+8105038218282,False,https://www.hellocycling.jp/app/port/detail/161?referrer=odpt,https://www.hellocycling.jp/app/port/detail/161?referrer=odpt,https://www.hellocycling.jp/app/port/detail/161?referrer=odpt,0,20,20,0
34.959013,137.159709,りぶら,愛知県岡崎市康生通西４丁目７１番地,162,False,street_parking,+8105038218282,False,https://www.hellocycling.jp/app/port/detail/162?referrer=odpt,https://www.hellocycling.jp/app/port/detail/162?referrer=odpt,https://www.hellocycling.jp/app/port/detail/162?referrer=odpt,6,6,0,6
34.954833,137.173806,岡崎市役所,愛知県岡崎市十王町２丁目,163,False,street_parking,+8105038218282,False,https://www.hellocycling.jp/app/port/detail/163?referrer=odpt,https://www.hellocycling.jp/app/port/detail/163?referrer=odpt,https://www.hellocycling.jp/app/port/detail/163?referrer=odpt,8,12,4,8
34.9580777,137.1598589,岡崎公園大手門,愛知県岡崎市康生町５６１番地,164,False,street_parking,+8105038218282,False,https://www.hellocycling.jp/app/port/detail/164?referrer=odpt,https://www.hellocycling.jp/app/port/detail/164?referrer=odpt,https://www.hellocycling.jp/app/port/detail/164?referrer=odpt,4,4,0,4
35.777223,139.7192448,赤羽駅西口自転車駐車場(4:00～24：50）       ,東京都北区赤羽西1－7－1,182,False,street_parking,+8105038218282,False,https://www.hellocycling.jp/app/port/detail/182?referrer=odpt,https://www.hellocycling.jp/app/port/detail/182?referrer=odpt,https://www.hellocycling.jp/app/port/detail/182?referrer=odpt,3,5,1,1
35.705526,139.653978,サイクルベースあさひ高円寺店,東京都杉並区高円寺南4-52-1,184,False,street_parking,+8105038218282,False,https://www.hellocycling.jp/app/port/detail/184?referrer=odpt,https://www.hellocycling.jp/app/port/detail/184?referrer=odpt,https://www.hellocycling.jp/app/port/detail/184?referrer=odpt,1,4,3,1
35.698742,139.744396,フィル・パークKaguLab.飯田橋,東京都千代田区富士見2-12-13,185,False,street_parking,+8105038218282,False,https://www.hellocycling.jp/app/port/detail/185?referrer=odpt,https://www.hellocycling.jp/app/port/detail/185?referrer=odpt,https://www.hellocycling.jp/app/port/detail/185?referrer=odpt,1,5,4,0
35.894604,139.712935,セブンイレブン　浦和南部領店,埼玉県さいたま市緑区南部領辻3175-1,188,False,street_parking,+8105038218282,False,https://www.hellocycling.jp/app/port/detail/188?referrer=odpt,https://www.hellocycling.jp/app/port/detail/188?referrer=odpt,https://www.hellocycling.jp/app/port/detail/188?referrer=odpt,1,6,5,1
35.955439,139.650656,セブンイレブン　さいたま春岡店,埼玉県さいたま市見沼区丸ヶ崎町25-12,189,False,street_parking,+8105038218282,False,https://www.hellocycling.jp/app/port/detail/189?referrer=odpt,https://www.hellocycling.jp/app/port/detail/189?referrer=odpt,https://www.hellocycling.jp/app/port/detail/189?referrer=odpt,6,6,0,5
35.923576,139.655688,セブンイレブン　大宮大和田前原店,埼玉県さいたま市見沼区大和田町1-1488-7,191,False,street_parking,+8105038218282,False,https://www.hellocycling.jp/app/port/detail/191?referrer=odpt,https://www.hellocycling.jp/app/port/detail/191?referrer=odpt,https://www.hellocycling.jp/app/port/detail/191?referrer=odpt,6,6,0,2
35.930472,139.604566,セブンイレブン　大宮日進駅西店,埼玉県さいたま市北区日進町2-1136,195,False,street_parking,+8105038218282,False,https://www.hellocycling.jp/app/port/detail/195?referrer=odpt,https://www.hellocycling.jp/app/port/detail/195?referrer=odpt,https://www.hellocycling.jp/app/port/detail/195?referrer=odpt,4,4,0,4
35.879452,139.643929,セブンイレブン　針ヶ谷店,埼玉県さいたま市浦和区針ヶ谷1-11-4,198,False,street_parking,+8105038218282,False,https://www.hellocycling.jp/app/port/detail/198?referrer=odpt,https://www.hellocycling.jp/app/port/detail/198?referrer=odpt,https://www.hellocycling.jp/app/port/detail/198?referrer=odpt,2,3,1,1
35.872215,139.651599,セブンイレブン　浦和元町中央店,埼玉県さいたま市浦和区元町2-17-18,199,False,street_parking,+8105038218282,False,https://www.hellocycling.jp/app/port/detail/199?referrer=odpt,https://www.hellocycling.jp/app/port/detail/199?referrer=odpt,https://www.hellocycling.jp/app/port/detail/199?referrer=odpt,2,4,2,1
35.863387,139.64432299999999,セブンイレブン　浦和常盤店,埼玉県さいたま市浦和区常盤7-16-22,200,False,street_parking,+8105038218282,False,https://www.hellocycling.jp/app/port/detail/200?referrer=odpt,https://www.hellocycling.jp/app/port/detail/200?referrer=odpt,https://www.hellocycling.jp/app/port/detail/200?referrer=odpt,4,9,5,3
35.8725779,139.6417933,セブンイレブン　浦和常盤10丁目店,埼玉県さいたま市浦和区常盤10-12-17,201,False,street_parking,+8105038218282,False,https://www.hellocycling.jp/app/port/detail/201?referrer=odpt,https://www.hellocycling.jp/app/port/detail/201?referrer=odpt,https://www.hellocycling.jp/app/port/detail/201?referrer=odpt,3,6,3,3
35.904469,139.628921,セブンイレブン　さいたま下町3丁目店,埼玉県さいたま市大宮区下町3-5-1,202,False,street_parking,+8105038218282,False,https://www.hellocycling.jp/app/port/detail/202?referrer=odpt,https://www.hellocycling.jp/app/port/detail/202?referrer=odpt,https://www.hellocycling.jp/app/port/detail/202?referrer=odpt,2,6,4,1
35.899438,139.626261,セブンイレブン　さいたま上落合9丁目店,埼玉県さいたま市中央区上落合9-1-1,203,False,street_parking,+8105038218282,False,https://www.hellocycling.jp/app/port/detail/203?referrer=odpt,https://www.hellocycling.jp/app/port/detail/203?referrer=odpt,https://www.hellocycling.jp/app/port/detail/203?referrer=odpt,5,14,9,4
35.837665,139.652098,セブンイレブン　浦和白幡6丁目店,埼玉県さいたま市南区白幡6-11-6,204,False,street_parking,+8105038218282,False,https://www.hellocycling.jp/app/port/detail/204?referrer=odpt,https://www.hellocycling.jp/app/port/detail/204?referrer=odpt,https://www.hellocycling.jp/app/port/detail/204?referrer=odpt,5,6,0,4
35.864546,139.646476,セブンイレブン　浦和常盤5丁目店,埼玉県さいたま市浦和区常盤5-17-12,207,False,street_parking,+8105038218282,False,https://www.hellocycling.jp/app/port/detail/207?referrer=odpt,https://www.hellocycling.jp/app/port/detail/207?referrer=odpt,https://www.hellocycling.jp/app/port/detail/207?referrer=odpt,5,9,4,5
34.488744,134.173451,◆小豆島◆土庄港 マリンレンタカー,香川県土庄町小豆郡土庄町土庄甲6194-11,213,False,street_parking,+8105038218282,False,https://www.hellocycling.jp/app/port/detail/213?referrer=odpt,https://www.hellocycling.jp/app/port/detail/213?referrer=odpt,https://www.hellocycling.jp/app/port/detail/213?referrer=odpt,8,10,2,8
34.488537,134.17275,◆小豆島◆土庄港 フェリーターミナル入口,香川県土庄町小豆郡土庄町土庄甲5165-201,214,False,street_parking,+8105038218282,False,https://www.hellocycling.jp/app/port/detail/214?referrer=odpt,https://www.hellocycling.jp/app/port/detail/214?referrer=odpt,https://www.hellocycling.jp/app/port/detail/214?referrer=odpt,11,20,9,11
34.4548059,134.3229776,◆小豆島◆坂手港 臨時ステーション,香川県小豆島町坂手甲1849,219,False,street_parking,+8105038218282,False,https://www.hellocycling.jp/app/port/detail/219?referrer=odpt,https://www.hellocycling.jp/app/port/detail/219?referrer=odpt,https://www.hellocycling.jp/app/port/detail/219?referrer=odpt,12,20,8,11
34.470778,134.23641,◆小豆島◆ふるさと村,香川県小豆島町小豆郡小豆島町室生2084-1,222,False,street_parking,+8105038218282,False,https://www.hellocycling.jp/app/port/detail/222?referrer=odpt,https://www.hellocycling.jp/app/port/detail/222?referrer=odpt,https://www.hellocycling.jp/app/port/detail/222?referrer=odpt,1,4,3,1
34.478995,134.188748,◆小豆島◆エンジェルロード,香川県土庄町小豆郡土庄町甲24-92,224,False,street_parking,+8105038218282,False,https://www.hellocycling.jp/app/port/detail/224?referrer=odpt,https://www.hellocycling.jp/app/port/detail/224?referrer=odpt,https://www.hellocycling.jp/app/port/detail/224?referrer=odpt,9,12,3,9
34.472815,134.273344,◆小豆島◆オリーブ公園 オリーブ記念館裏駐車場,香川県小豆島町小豆郡小豆島町西村甲1941-1,225,False,street_parking,+8105038218282,False,https://www.hellocycling.jp/app/port/detail/225?referrer=odpt,https://www.hellocycling.jp/app/port/detail/225?referrer=odpt,https://www.hellocycling.jp/app/port/detail/225?referrer=odpt,1,10,9,1
34.445675,134.284736,◆小豆島◆二十四の瞳映画村・壺井栄文学館,香川県小豆島町小豆郡小豆島町田浦甲977-931,228,False,street_parking,+8105038218282,False,https://www.hellocycling.jp/app/port/detail/228?referrer=odpt,https://www.hellocycling.jp/app/port/detail/228?referrer=odpt,https://www.hellocycling.jp/app/port/detail/228?referrer=odpt,6,15,9,6
34.503302,134.241802,◆小豆島◆中山千枚田・中山農村歌舞伎舞台,香川県小豆島町小豆郡土庄町中山1487,231,False,street_parking,+8105038218282,False,https://www.hellocycling.jp/app/port/detail/231?referrer=odpt,https://www.hellocycling.jp/app/port/detail/231?referrer=odpt,https://www.hellocycling.jp/app/port/detail/231?referrer=odpt,4,10,6,4
34.469662,134.274592,◆小豆島◆オリーブナビ小豆島,香川県小豆島町小豆郡小豆島町西村甲1896-1,232,False,street_parking,+8105038218282,False,https://www.hellocycling.jp/app/port/detail/232?referrer=odpt,https://www.hellocycling.jp/app/port/detail/232?referrer=odpt,https://www.hellocycling.jp/app/port/detail/232?referrer=odpt,8,8,0,8
34.5079878,134.2964311,◆小豆島◆寒霞渓ロープウェイこううん駅,香川県小豆島町小豆郡小豆島町神懸通乙168,234,False,street_parking,+8105038218282,False,https://www.hellocycling.jp/app/port/detail/234?referrer=odpt,https://www.hellocycling.jp/app/port/detail/234?referrer=odpt,https://www.hellocycling.jp/app/port/detail/234?referrer=odpt,4,6,2,4
34.542869,134.343629,◆小豆島◆福田港,香川県小豆島町小豆郡 小豆島町福田甲1196-56,235,False,street_parking,+8105038218282,False,https://www.hellocycling.jp/app/port/detail/235?referrer=odpt,https://www.hellocycling.jp/app/port/detail/235?referrer=odpt,https://www.hellocycling.jp/app/port/detail/235?referrer=odpt,3,8,5,3
34.476618,134.17306,◆小豆島◆ビーチサイドホテル鹿島荘,香川県土庄町小豆郡土庄町甲1656-1,236,False,street_parking,+8105038218282,False,https://www.hellocycling.jp/app/port/detail/236?referrer=odpt,https://www.hellocycling.jp/app/port/detail/236?referrer=odpt,https://www.hellocycling.jp/app/port/detail/236?referrer=odpt,0,4,4,0
34.499629,134.167742,◆小豆島◆ホテルグリーンプラザ小豆島,香川県土庄町小豆郡 土庄町伊喜末2464,238,False,street_parking,+8105038218282,False,https://www.hellocycling.jp/app/port/detail/238?referrer=odpt,https://www.hellocycling.jp/app/port/detail/238?referrer=odpt,https://www.hellocycling.jp/app/port/detail/238?referrer=odpt,2,4,2,2
35.699899,139.77528,ル・サイクakiba,東京都千代田区神田松永町16,239,False,street_parking,+8105038218282,False,https://www.hellocycling.jp/app/port/detail/239?referrer=odpt,https://www.hellocycling.jp/app/port/detail/239?referrer=odpt,https://www.hellocycling.jp/app/port/detail/239?referrer=odpt,0,1,1,0
34.472034,134.231216,◆小豆島◆国民宿舎小豆島,香川県小豆島町小豆郡小豆島町池田1500-4,241,False,street_parking,+8105038218282,False,https://www.hellocycling.jp/app/port/detail/241?referrer=odpt,https://www.hellocycling.jp/app/port/detail/241?referrer=odpt,https://www.hellocycling.jp/app/port/detail/241?referrer=odpt,4,4,0,4
34.488644,134.171796,◆小豆島◆オーキドホテル,香川県土庄町小豆郡土庄町甲5165-216,242,False,street_parking,+8105038218282,False,https://www.hellocycling.jp/app/port/detail/242?referrer=odpt,https://www.hellocycling.jp/app/port/detail/242?referrer=odpt,https://www.hellocycling.jp/app/port/detail/242?referrer=odpt,6,7,1,6
34.470542,134.270745,◆小豆島◆オリーブ園,香川県小豆島町小豆郡小豆島町西村甲2171,246,False,street_parking,+8105038218282,False,https://www.hellocycling.jp/app/port/detail/246?referrer=odpt,https://www.hellocycling.jp/app/port/detail/246?referrer=odpt,https://www.hellocycling.jp/app/port/detail/246?referrer=odpt,4,4,0,4
34.486277,134.185912,◆小豆島◆土庄町役場,香川県土庄町小豆郡土庄町甲559-2,248,False,street_parking,+8105038218282,False,https://www.hellocycling.jp/app/port/detail/248?referrer=odpt,https://www.hellocycling.jp/app/port/detail/248?referrer=odpt,https://www.hellocycling.jp/app/port/detail/248?referrer=odpt,0,12,12,0
34.47858,134.299235,◆小豆島◆草壁港 駐輪場,香川県小豆島町小豆郡小豆島町草壁本町1053-3,252,False,street_parking,+8105038218282,False,https://www.hellocycling.jp/app/port/detail/252?referrer=odpt,https://www.hellocycling.jp/app/port/detail/252?referrer=odpt,https://www.hellocycling.jp/app/port/detail/252?referrer=odpt,31,35,4,6
34.737077,135.336014,阪神西宮西駐輪場,兵庫県西宮市産所町4,254,False,street_parking,+8105038218282,True,https://www.hellocycling.jp/app/port/detail/254?referrer=odpt,https://www.hellocycling.jp/app/port/detail/254?referrer=odpt,https://www.hellocycling.jp/app/port/detail/254?referrer=odpt,5,13,8,5
34.736249,135.342873,阪神西宮東駐輪場,兵庫県西宮市六湛寺町135,260,False,street_parking,+8105038218282,True,https://www.hellocycling.jp/app/port/detail/260?referrer=odpt,https://www.hellocycling.jp/app/port/detail/260?referrer=odpt,https://www.hellocycling.jp/app/port/detail/260?referrer=odpt,4,4,0,3
34.724732,135.361237,阪神甲子園西駐輪場,兵庫県西宮市甲子園浦風町18,268,False,street_parking,+8105038218282,True,https://www.hellocycling.jp/app/port/detail/268?referrer=odpt,https://www.hellocycling.jp/app/port/detail/268?referrer=odpt,https://www.hellocycling.jp/app/port/detail/268?referrer=odpt,5,6,1,5
35.956806,139.682034,セブンイレブン　岩槻箕輪店,埼玉県さいたま市岩槻区箕輪字東132,271,False,street_parking,+8105038218282,False,https://www.hellocycling.jp/app/port/detail/271?referrer=odpt,https://www.hellocycling.jp/app/port/detail/271?referrer=odpt,https://www.hellocycling.jp/app/port/detail/271?referrer=odpt,4,5,1,0
35.94181,139.644071,セブンイレブン　さいたま東大宮7丁目店,埼玉県さいたま市見沼区東大宮7-52-6,275,False,street_parking,+8105038218282,False,https://www.hellocycling.jp/app/port/detail/275?referrer=odpt,https://www.hellocycling.jp/app/port/detail/275?referrer=odpt,https://www.hellocycling.jp/app/port/detail/275?referrer=odpt,3,5,2,3
35.9503205,139.6468674,セブンイレブン　さいたま東大宮6丁目店,埼玉県さいたま市見沼区東大宮6丁目28-2,276,False,street_parking,+8105038218282,False,https://www.hellocycling.jp/app/port/detail/276?referrer=odpt,https://www.hellocycling.jp/app/port/detail/276?referrer=odpt,https://www.hellocycling.jp/app/port/detail/276?referrer=odpt,6,11,5,5
35.948431,139.641417,セブンイレブン　東大宮店,埼玉県さいたま市見沼区東大宮5丁目1-5,277,False,street_parking,+8105038218282,False,https://www.hellocycling.jp/app/port/detail/277?referrer=odpt,https://www.hellocycling.jp/app/port/detail/277?referrer=odpt,https://www.hellocycling.jp/app/port/detail/277?referrer=odpt,5,9,4,0
35.951022,139.60033,セブンイレブン　さいたま奈良町北店,埼玉県さいたま市北区奈良町109-4,280,False,street_parking,+8105038218282,False,https://www.hellocycling.jp/app/port/detail/280?referrer=odpt,https://www.hellocycling.jp/app/port/detail/280?referrer=odpt,https://www.hellocycling.jp/app/port/detail/280?referrer=odpt,3,4,1,3
35.95326,139.623183,セブンイレブン　さいたま今羽町店,埼玉県さいたま市北区今羽町352,281,False,street_parking,+8105038218282,False,https://www.hellocycling.jp/app/port/detail/281?referrer=odpt,https://www.hellocycling.jp/app/port/detail/281?referrer=odpt,https://www.hellocycling.jp/app/port/detail/281?referrer=odpt,1,6,5,1
35.897446,139.605133,セブンイレブン　さいたま三橋3丁目店,埼玉県さいたま市大宮区三橋3丁目221-1,287,False,street_parking,+8105038218282,False,https://www.hellocycling.jp/app/port/detail/287?referrer=odpt,https://www.hellocycling.jp/app/port/detail/287?referrer=odpt,https://www.hellocycling.jp/app/port/detail/287?referrer=odpt,5,8,3,5
35.91876,139.61327,セブンイレブン　さいたま大成町3丁目店,埼玉県さいたま市大宮区大成町3-545,288,False,street_parking,+8105038218282,False,https://www.hellocycling.jp/app/port/detail/288?referrer=odpt,https://www.hellocycling.jp/app/port/detail/288?referrer=odpt,https://www.hellocycling.jp/app/port/detail/288?referrer=odpt,5,5,0,4
35.919953,139.617038,セブンイレブン　鉄道博物館前店,埼玉県さいたま市大宮区大成町3-263-1,289,False,street_parking,+8105038218282,False,https://www.hellocycling.jp/app/port/detail/289?referrer=odpt,https://www.hellocycling.jp/app/port/detail/289?referrer=odpt,https://www.hellocycling.jp/app/port/detail/289?referrer=odpt,1,6,5,1
35.911497,139.614996,セブンイレブン　さいたま大成町2丁目店,埼玉県さいたま市大宮区大成町2-201-1,290,False,street_parking,+8105038218282,False,https://www.hellocycling.jp/app/port/detail/290?referrer=odpt,https://www.hellocycling.jp/app/port/detail/290?referrer=odpt,https://www.hellocycling.jp/app/port/detail/290?referrer=odpt,2,5,3,2
35.859671,139.652126,セブンイレブン　浦和裏門通り店,埼玉県さいたま市浦和区仲町2-12-2,291,False,street_parking,+8105038218282,False,https://www.hellocycling.jp/app/port/detail/291?referrer=odpt,https://www.hellocycling.jp/app/port/detail/291?referrer=odpt,https://www.hellocycling.jp/app/port/detail/291?referrer=odpt,3,4,1,2
35.873153,139.65771,セブンイレブン　浦和元町2丁目店,埼玉県さいたま市浦和区元町2-39-8,292,False,street_parking,+8105038218282,False,https://www.hellocycling.jp/app/port/detail/292?referrer=odpt,https://www.hellocycling.jp/app/port/detail/292?referrer=odpt,https://www.hellocycling.jp/app/port/detail/292?referrer=odpt,4,5,0,3
35.871649,139.674427,セブンイレブン　さいたま原山3丁目南店,埼玉県さいたま市緑区原山3-14-21,293,False,street_parking,+8105038218282,False,https://www.hellocycling.jp/app/port/detail/293?referrer=odpt,https://www.hellocycling.jp/app/port/detail/293?referrer=odpt,https://www.hellocycling.jp/app/port/detail/293?referrer=odpt,3,8,5,3
35.8764655,139.6844904,セブンイレブン　さいたま中尾バイパス店,埼玉県さいたま市緑区中尾1286-1,294,False,street_parking,+8105038218282,False,https://www.hellocycling.jp/app/port/detail/294?referrer=odpt,https://www.hellocycling.jp/app/port/detail/294?referrer=odpt,https://www.hellocycling.jp/app/port/detail/294?referrer=odpt,5,7,2,5
35.84164,139.67483,セブンイレブン　さいたま文蔵3丁目店,埼玉県さいたま市南区文蔵3-2-3,296,False,street_parking,+8105038218282,False,https://www.hellocycling.jp/app/port/detail/296?referrer=odpt,https://www.hellocycling.jp/app/port/detail/296?referrer=odpt,https://www.hellocycling.jp/app/port/detail/296?referrer=odpt,3,3,0,3
35.951047,139.695907,セブンイレブン　岩槻本町店,埼玉県さいたま市岩槻区本町3-7-6,326,False,street_parking,+8105038218282,False,https://www.hellocycling.jp/app/port/detail/326?referrer=odpt,https://www.hellocycling.jp/app/port/detail/326?referrer=odpt,https://www.hellocycling.jp/app/port/detail/326?referrer=odpt,1,11,10,1
35.802869,139.596042,朝霞市民会館,埼玉県朝霞市本町1-26-1,327,False,street_parking,+8105038218282,False,https://www.hellocycling.jp/app/port/detail/327?referrer=odpt,https://www.hellocycling.jp/app/port/detail/327?referrer=odpt,https://www.hellocycling.jp/app/port/detail/327?referrer=odpt,10,10,0,10
35.911622,139.653418,セブンイレブン　さいたま南中丸店,埼玉県さいたま市見沼区南中野635-1,330,False,street_parking,+8105038218282,False,https://www.hellocycling.jp/app/port/detail/330?referrer=odpt,https://www.hellocycling.jp/app/port/detail/330?referrer=odpt,https://www.hellocycling.jp/app/port/detail/330?referrer=odpt,6,7,1,3
35.894753,139.64225,セブンイレブン　さいたま北袋町2丁目店,埼玉県さいたま市大宮区北袋町2-186-4,332,False,street_parking,+8105038218282,False,https://www.hellocycling.jp/app/port/detail/332?referrer=odpt,https://www.hellocycling.jp/app/port/detail/332?referrer=odpt,https://www.hellocycling.jp/app/port/detail/332?referrer=odpt,5,5,0,2
35.884783,139.604758,セブンイレブン　さいたま白鍬店,埼玉県さいたま市桜区白鍬495-1,333,False,street_parking,+8105038218282,False,https://www.hellocycling.jp/app/port/detail/333?referrer=odpt,https://www.hellocycling.jp/app/port/detail/333?referrer=odpt,https://www.hellocycling.jp/app/port/detail/333?referrer=odpt,1,5,3,1
35.914832,139.598024,セブンイレブン　さいたま三橋総合公園前店,埼玉県さいたま市大宮区三橋1-874,335,False,street_parking,+8105038218282,False,https://www.hellocycling.jp/app/port/detail/335?referrer=odpt,https://www.hellocycling.jp/app/port/detail/335?referrer=odpt,https://www.hellocycling.jp/app/port/detail/335?referrer=odpt,4,9,4,4
35.933895,139.620893,セブンイレブン　さいたま宮原1丁目西店,埼玉県さいたま市北区宮原町1-129-1,336,False,street_parking,+8105038218282,False,https://www.hellocycling.jp/app/port/detail/336?referrer=odpt,https://www.hellocycling.jp/app/port/detail/336?referrer=odpt,https://www.hellocycling.jp/app/port/detail/336?referrer=odpt,12,14,2,12
35.945856,139.60302,セブンイレブン　大宮奈良町店,埼玉県さいたま市北区奈良町31-13,338,False,street_parking,+8105038218282,False,https://www.hellocycling.jp/app/port/detail/338?referrer=odpt,https://www.hellocycling.jp/app/port/detail/338?referrer=odpt,https://www.hellocycling.jp/app/port/detail/338?referrer=odpt,8,9,1,8
35.852567,139.675421,セブンイレブン　さいたま大谷場店,埼玉県さいたま市南区大谷場2-14-32,341,False,street_parking,+8105038218282,False,https://www.hellocycling.jp/app/port/detail/341?referrer=odpt,https://www.hellocycling.jp/app/port/detail/341?referrer=odpt,https://www.hellocycling.jp/app/port/detail/341?referrer=odpt,7,7,0,7
35.837645,139.663205,セブンイレブン　さいたま辻1丁目店,埼玉県さいたま市南区辻1-27-8,342,False,street_parking,+8105038218282,False,https://www.hellocycling.jp/app/port/detail/342?referrer=odpt,https://www.hellocycling.jp/app/port/detail/342?referrer=odpt,https://www.hellocycling.jp/app/port/detail/342?referrer=odpt,7,7,0,6
35.849233,139.641611,セブンイレブン　さいたま鹿手袋3丁目店,埼玉県さいたま市南区鹿手袋3-27-16,344,False,street_parking,+8105038218282,False,https://www.hellocycling.jp/app/port/detail/344?referrer=odpt,https://www.hellocycling.jp/app/port/detail/344?referrer=odpt,https://www.hellocycling.jp/app/port/detail/344?referrer=odpt,6,6,0,5
35.86973,139.633458,セブンイレブン　さいたま大戸６丁目店,埼玉県さいたま市中央区大戸6-13-5,347,False,street_parking,+8105038218282,False,https://www.hellocycling.jp/app/port/detail/347?referrer=odpt,https://www.hellocycling.jp/app/port/detail/347?referrer=odpt,https://www.hellocycling.jp/app/port/detail/347?referrer=odpt,2,5,3,2
35.906043,139.627038,セブンイレブン　さいたま大宮駅東店 (大宮駅近辺),埼玉県さいたま市大宮区仲町2-9,356,False,street_parking,+8105038218282,False,https://www.hellocycling.jp/app/port/detail/356?referrer=odpt,https://www.hellocycling.jp/app/port/detail/356?referrer=odpt,https://www.hellocycling.jp/app/port/detail/356?referrer=odpt,6,6,0,3
35.89071,139.623712,セブンイレブン　さいたま上落合3丁目店,埼玉県さいたま市中央区上落合3-11-12,357,False,street_parking,+8105038218282,False,https://www.hellocycling.jp/app/port/detail/357?referrer=odpt,https://www.hellocycling.jp/app/port/detail/357?referrer=odpt,https://www.hellocycling.jp/app/port/detail/357?referrer=odpt,3,8,5,3
35.800941,139.612318,根岸台自然公園,埼玉県朝霞市根岸台8-531-1,359,False,street_parking,+8105038218282,False,https://www.hellocycling.jp/app/port/detail/359?referrer=odpt,https://www.hellocycling.jp/app/port/detail/359?referrer=odpt,https://www.hellocycling.jp/app/port/detail/359?referrer=odpt,3,5,2,3
35.794957,139.610064,水久保公園,埼玉県朝霞市根岸台7-24-14,360,False,street_parking,+8105038218282,False,https://www.hellocycling.jp/app/port/detail/360?referrer=odpt,https://www.hellocycling.jp/app/port/detail/360?referrer=odpt,https://www.hellocycling.jp/app/port/detail/360?referrer=odpt,2,5,3,2
35.863161,139.637766,セブンイレブン　さいたま大戸3丁目店,埼玉県さいたま市中央区大戸3-2-18,364,False,street_parking,+8105038218282,False,https://www.hellocycling.jp/app/port/detail/364?referrer=odpt,https://www.hellocycling.jp/app/port/detail/364?referrer=odpt,https://www.hellocycling.jp/app/port/detail/364?referrer=odpt,9,9,0,9
35.857604,139.65424,セブンイレブン　浦和駅西口店 (浦和駅近辺),埼玉県さいたま市浦和区高砂2-6-9,366,False,street_parking,+8105038218282,False,https://www.hellocycling.jp/app/port/detail/366?referrer=odpt,https://www.hellocycling.jp/app/port/detail/366?referrer=odpt,https://www.hellocycling.jp/app/port/detail/366?referrer=odpt,2,3,1,1
35.84887,139.665588,セブンイレブン　さいたま南本町2丁目店,埼玉県さいたま市南区南本町2-20-13,367,False,street_parking,+8105038218282,False,https://www.hellocycling.jp/app/port/detail/367?referrer=odpt,https://www.hellocycling.jp/app/port/detail/367?referrer=odpt,https://www.hellocycling.jp/app/port/detail/367?referrer=odpt,3,3,0,3
35.866924,139.698643,セブンイレブン　東浦和3丁目店,埼玉県さいたま市緑区東浦和3-19-1,368,False,street_parking,+8105038218282,False,https://www.hellocycling.jp/app/port/detail/368?referrer=odpt,https://www.hellocycling.jp/app/port/detail/368?referrer=odpt,https://www.hellocycling.jp/app/port/detail/368?referrer=odpt,5,6,1,5
35.882725,139.677518,セブンイレブン　さいたま三室店,埼玉県さいたま市緑区大字三室1513-1,370,False,street_parking,+8105038218282,False,https://www.hellocycling.jp/app/port/detail/370?referrer=odpt,https://www.hellocycling.jp/app/port/detail/370?referrer=odpt,https://www.hellocycling.jp/app/port/detail/370?referrer=odpt,0,4,4,0
35.797028,139.600583,朝霞駅東口駅前広場(1),埼玉県朝霞市仲町2-1地内,372,False,street_parking,+8105038218282,False,https://www.hellocycling.jp/app/port/detail/372?referrer=odpt,https://www.hellocycling.jp/app/port/detail/372?referrer=odpt,https://www.hellocycling.jp/app/port/detail/372?referrer=odpt,0,32,32,0
35.891335,139.665099,セブンイレブン　さいたま山崎店,埼玉県さいたま市緑区三室283,375,False,street_parking,+8105038218282,False,https://www.hellocycling.jp/app/port/detail/375?referrer=odpt,https://www.hellocycling.jp/app/port/detail/375?referrer=odpt,https://www.hellocycling.jp/app/port/detail/375?referrer=odpt,7,10,3,6
35.89506,139.60934,セブンイレブン　さいたま円阿弥7丁目店,埼玉県さいたま市中央区円阿弥7-12-1,376,False,street_parking,+8105038218282,False,https://www.hellocycling.jp/app/port/detail/376?referrer=odpt,https://www.hellocycling.jp/app/port/detail/376?referrer=odpt,https://www.hellocycling.jp/app/port/detail/376?referrer=odpt,4,5,1,4
35.940414,139.608555,セブンイレブン　大宮宮原西口店,埼玉県さいたま市北区宮原町3-536,377,False,street_parking,+8105038218282,False,https://www.hellocycling.jp/app/port/detail/377?referrer=odpt,https://www.hellocycling.jp/app/port/detail/377?referrer=odpt,https://www.hellocycling.jp/app/port/detail/377?referrer=odpt,1,6,5,0
35.875158,139.703291,セブンイレブン　さいたま大牧店,埼玉県さいたま市緑区大字大牧1487-5,381,False,street_parking,+8105038218282,False,https://www.hellocycling.jp/app/port/detail/381?referrer=odpt,https://www.hellocycling.jp/app/port/detail/381?referrer=odpt,https://www.hellocycling.jp/app/port/detail/381?referrer=odpt,4,5,1,4
35.871784,139.691124,セブンイレブン　さいたま中尾店,埼玉県さいたま市緑区東浦和9-20-15,382,False,street_parking,+8105038218282,False,https://www.hellocycling.jp/app/port/detail/382?referrer=odpt,https://www.hellocycling.jp/app/port/detail/382?referrer=odpt,https://www.hellocycling.jp/app/port/detail/382?referrer=odpt,6,7,1,6
35.88445,139.68641,セブンイレブン　さいたま松木2丁目店,埼玉県さいたま市緑区松木2-3-3,383,False,street_parking,+8105038218282,False,https://www.hellocycling.jp/app/port/detail/383?referrer=odpt,https://www.hellocycling.jp/app/port/detail/383?referrer=odpt,https://www.hellocycling.jp/app/port/detail/383?referrer=odpt,8,10,2,8
35.833805,139.665972,セブンイレブン　さいたま辻7丁目店,埼玉県さいたま市南区辻7-12-20,384,False,street_parking,+8105038218282,False,https://www.hellocycling.jp/app/port/detail/384?referrer=odpt,https://www.hellocycling.jp/app/port/detail/384?referrer=odpt,https://www.hellocycling.jp/app/port/detail/384?referrer=odpt,2,4,1,1
35.863025,139.614641,セブンイレブン　さいたま栄和2丁目店,埼玉県さいたま市桜区栄和2-26-23,386,False,street_parking,+8105038218282,False,https://www.hellocycling.jp/app/port/detail/386?referrer=odpt,https://www.hellocycling.jp/app/port/detail/386?referrer=odpt,https://www.hellocycling.jp/app/port/detail/386?referrer=odpt,6,9,3,4
35.869029,139.608802,セブンイレブン　さいたま大久保店,埼玉県さいたま市桜区大久保領家555-7,387,False,street_parking,+8105038218282,False,https://www.hellocycling.jp/app/port/detail/387?referrer=odpt,https://www.hellocycling.jp/app/port/detail/387?referrer=odpt,https://www.hellocycling.jp/app/port/detail/387?referrer=odpt,7,7,0,6
35.881451,139.670772,サイクルベースあさひ浦和東店,埼玉県さいたま市緑区大字三室1199,388,False,street_parking,+8105038218282,False,https://www.hellocycling.jp/app/port/detail/388?referrer=odpt,https://www.hellocycling.jp/app/port/detail/388?referrer=odpt,https://www.hellocycling.jp/app/port/detail/388?referrer=odpt,11,18,7,11
35.878417999999996,139.625046,サイクルベースあさひ与野本町店,埼玉県さいたま市中央区鈴谷8-11-16,389,False,street_parking,+8105038218282,False,https://www.hellocycling.jp/app/port/detail/389?referrer=odpt,https://www.hellocycling.jp/app/port/detail/389?referrer=odpt,https://www.hellocycling.jp/app/port/detail/389?referrer=odpt,1,4,3,1
35.957594,139.716212,サイクルベースあさひ岩槻店,埼玉県さいたま市岩槻区南平野2-1-2,390,False,street_parking,+8105038218282,False,https://www.hellocycling.jp/app/port/detail/390?referrer=odpt,https://www.hellocycling.jp/app/port/detail/390?referrer=odpt,https://www.hellocycling.jp/app/port/detail/390?referrer=odpt,0,5,5,0
35.840908,139.6351,サイクルベースあさひ武蔵浦和店,埼玉県さいたま市南区四谷1-6-3,391,False,street_parking,+8105038218282,False,https://www.hellocycling.jp/app/port/detail/391?referrer=odpt,https://www.hellocycling.jp/app/port/detail/391?referrer=odpt,https://www.hellocycling.jp/app/port/detail/391?referrer=odpt,3,6,3,1
26.234912,127.681721,沖縄ヤマハ　店舗前駐輪場,沖縄県那覇市１丁目８番１０号,393,False,street_parking,+8105038218282,False,https://www.hellocycling.jp/app/port/detail/393?referrer=odpt,https://www.hellocycling.jp/app/port/detail/393?referrer=odpt,https://www.hellocycling.jp/app/port/detail/393?referrer=odpt,4,6,2,1
35.796634,139.599473,朝霞駅南口駅前広場,埼玉県朝霞市本町2-4地内,394,False,street_parking,+8105038218282,False,https://www.hellocycling.jp/app/port/detail/394?referrer=odpt,https://www.hellocycling.jp/app/port/detail/394?referrer=odpt,https://www.hellocycling.jp/app/port/detail/394?referrer=odpt,15,35,20,13
35.873194,139.673162,セブンイレブン　浦和原山3丁目店,埼玉県さいたま市緑区原山3-6-23,396,False,street_parking,+8105038218282,False,https://www.hellocycling.jp/app/port/detail/396?referrer=odpt,https://www.hellocycling.jp/app/port/detail/396?referrer=odpt,https://www.hellocycling.jp/app/port/detail/396?referrer=odpt,8,9,1,8
35.866934,139.685857,セブンイレブン　さいたま中尾緑島店,埼玉県さいたま市緑区中尾2501-1,397,False,street_parking,+8105038218282,False,https://www.hellocycling.jp/app/port/detail/397?referrer=odpt,https://www.hellocycling.jp/app/port/detail/397?referrer=odpt,https://www.hellocycling.jp/app/port/detail/397?referrer=odpt,3,6,3,3
35.851662,139.670401,セブンイレブン　南浦和1丁目店,埼玉県さいたま市南区南浦和1-30-26,398,False,street_parking,+8105038218282,False,https://www.hellocycling.jp/app/port/detail/398?referrer=odpt,https://www.hellocycling.jp/app/port/detail/398?referrer=odpt,https://www.hellocycling.jp/app/port/detail/398?referrer=odpt,3,5,2,3
35.910991,139.606108,セブンイレブン　さいたま櫛引町1丁目南店,埼玉県さいたま市大宮区櫛引町1-496-1,399,False,street_parking,+8105038218282,False,https://www.hellocycling.jp/app/port/detail/399?referrer=odpt,https://www.hellocycling.jp/app/port/detail/399?referrer=odpt,https://www.hellocycling.jp/app/port/detail/399?referrer=odpt,0,4,4,0
26.223355,127.698659,レキオスおもろまち駅前ビル バス停前,沖縄県那覇市真嘉比1-1-1,400,False,street_parking,+8105038218282,False,https://www.hellocycling.jp/app/port/detail/400?referrer=odpt,https://www.hellocycling.jp/app/port/detail/400?referrer=odpt,https://www.hellocycling.jp/app/port/detail/400?referrer=odpt,4,10,6,4
26.225545,127.699053,レキオス本社前,沖縄県那覇市おもろまち4-19-16,401,False,street_parking,+8105038218282,False,https://www.hellocycling.jp/app/port/detail/401?referrer=odpt,https://www.hellocycling.jp/app/port/detail/401?referrer=odpt,https://www.hellocycling.jp/app/port/detail/401?referrer=odpt,6,6,0,6
26.215299,127.696652,那覇市安里　グランデュール安里,沖縄県那覇市安里406,408,False,street_parking,+8105038218282,False,https://www.hellocycling.jp/app/port/detail/408?referrer=odpt,https://www.hellocycling.jp/app/port/detail/408?referrer=odpt,https://www.hellocycling.jp/app/port/detail/408?referrer=odpt,1,2,1,1
26.23275,127.693613,ビージーエム沖縄　駐輪場,沖縄県那覇市天久1-28-2,409,False,street_parking,+8105038218282,False,https://www.hellocycling.jp/app/port/detail/409?referrer=odpt,https://www.hellocycling.jp/app/port/detail/409?referrer=odpt,https://www.hellocycling.jp/app/port/detail/409?referrer=odpt,0,4,4,0
35.796555,139.594479,朝霞市役所,埼玉県朝霞市本町1-1-1,416,False,street_parking,+8105038218282,False,https://www.hellocycling.jp/app/port/detail/416?referrer=odpt,https://www.hellocycling.jp/app/port/detail/416?referrer=odpt,https://www.hellocycling.jp/app/port/detail/416?referrer=odpt,11,12,1,11
34.6080201,135.552813,セブンイレブン　喜連瓜破駅南店,大阪府大阪市平野区瓜破2-2-58,419,False,street_parking,+8105038218282,False,https://www.hellocycling.jp/app/port/detail/419?referrer=odpt,https://www.hellocycling.jp/app/port/detail/419?referrer=odpt,https://www.hellocycling.jp/app/port/detail/419?referrer=odpt,6,6,0,5
34.718839,135.415234,阪神尼崎駅西　アマスタアマセン高架下駐輪場,兵庫県尼崎市神田中通2-28,421,False,street_parking,+8105038218282,True,https://www.hellocycling.jp/app/port/detail/421?referrer=odpt,https://www.hellocycling.jp/app/port/detail/421?referrer=odpt,https://www.hellocycling.jp/app/port/detail/421?referrer=odpt,2,3,0,2
34.718015,135.395969,阪神尼崎センタープール前駐輪場,兵庫県尼崎市水明町373-6,422,False,street_parking,+8105038218282,False,https://www.hellocycling.jp/app/port/detail/422?referrer=odpt,https://www.hellocycling.jp/app/port/detail/422?referrer=odpt,https://www.hellocycling.jp/app/port/detail/422?referrer=odpt,5,5,0,5
35.833127,139.640978,セブンイレブン　浦和内谷4丁目店,埼玉県さいたま市南区内谷4-19-1,432,False,street_parking,+8105038218282,False,https://www.hellocycling.jp/app/port/detail/432?referrer=odpt,https://www.hellocycling.jp/app/port/detail/432?referrer=odpt,https://www.hellocycling.jp/app/port/detail/432?referrer=odpt,3,3,0,3
35.833013,139.676836,セブンイレブン　さいたま文蔵5丁目店,埼玉県さいたま市南区文蔵5-6-10,433,False,street_parking,+8105038218282,False,https://www.hellocycling.jp/app/port/detail/433?referrer=odpt,https://www.hellocycling.jp/app/port/detail/433?referrer=odpt,https://www.hellocycling.jp/app/port/detail/433?referrer=odpt,5,5,0,5
35.793326,139.596358,朝霞市立図書館,埼玉県朝霞市青葉台1-7-26,434,False,street_parking,+8105038218282,False,https://www.hellocycling.jp/app/port/detail/434?referrer=odpt,https://www.hellocycling.jp/app/port/detail/434?referrer=odpt,https://www.hellocycling.jp/app/port/detail/434?referrer=odpt,4,4,0,4
35.561665,139.558185,セブンイレブン　横浜荏田町店,神奈川県横浜市青葉区荏田町1410-1,436,False,street_parking,+8105038218282,False,https://www.hellocycling.jp/app/port/detail/436?referrer=odpt,https://www.hellocycling.jp/app/port/detail/436?referrer=odpt,https://www.hellocycling.jp/app/port/detail/436?referrer=odpt,4,6,2,4
33.252591,130.300271,佐賀バルーンミュージアム,佐賀県佐賀市松原二丁目18番,442,False,street_parking,+8105038218282,False,https://www.hellocycling.jp/app/port/detail/442?referrer=odpt,https://www.hellocycling.jp/app/port/detail/442?referrer=odpt,https://www.hellocycling.jp/app/port/detail/442?referrer=odpt,1,11,10,1
33.25411,130.305746,佐賀市歴史民俗館,佐賀県佐賀市柳町１６番１,443,False,street_parking,+8105038218282,False,https://www.hellocycling.jp/app/port/detail/443?referrer=odpt,https://www.hellocycling.jp/app/port/detail/443?referrer=odpt,https://www.hellocycling.jp/app/port/detail/443?referrer=odpt,4,4,0,4
33.263918993609,130.30039367184,佐賀市役所 ＊閉門中は市役所守衛室まで,佐賀県佐賀市栄町1-1,444,False,street_parking,+8105038218282,False,https://www.hellocycling.jp/app/port/detail/444?referrer=odpt,https://www.hellocycling.jp/app/port/detail/444?referrer=odpt,https://www.hellocycling.jp/app/port/detail/444?referrer=odpt,3,16,13,3
35.567965,139.624953,セブンイレブン　川崎久末店,神奈川県川崎市高津区久末2148,446,False,street_parking,+8105038218282,False,https://www.hellocycling.jp/app/port/detail/446?referrer=odpt,https://www.hellocycling.jp/app/port/detail/446?referrer=odpt,https://www.hellocycling.jp/app/port/detail/446?referrer=odpt,5,5,0,5
35.517955,139.713702,セブンイレブン　川崎鋼管通店,神奈川県川崎市川崎区鋼管通1-3-8,449,False,street_parking,+8105038218282,False,https://www.hellocycling.jp/app/port/detail/449?referrer=odpt,https://www.hellocycling.jp/app/port/detail/449?referrer=odpt,https://www.hellocycling.jp/app/port/detail/449?referrer=odpt,5,6,1,5
35.510292,139.703231,セブンイレブン　川崎小田店,神奈川県川崎市川崎区小田5-27-12,450,False,street_parking,+8105038218282,False,https://www.hellocycling.jp/app/port/detail/450?referrer=odpt,https://www.hellocycling.jp/app/port/detail/450?referrer=odpt,https://www.hellocycling.jp/app/port/detail/450?referrer=odpt,2,4,2,2
35.529702,139.720957,セブンイレブン　川崎藤崎店,神奈川県川崎市川崎区藤崎1-12-9,451,False,street_parking,+8105038218282,False,https://www.hellocycling.jp/app/port/detail/451?referrer=odpt,https://www.hellocycling.jp/app/port/detail/451?referrer=odpt,https://www.hellocycling.jp/app/port/detail/451?referrer=odpt,4,4,0,2
35.79264,139.59438,朝霞中央公園,埼玉県朝霞市青葉台1-9-1,484,False,street_parking,+8105038218282,False,https://www.hellocycling.jp/app/port/detail/484?referrer=odpt,https://www.hellocycling.jp/app/port/detail/484?referrer=odpt,https://www.hellocycling.jp/app/port/detail/484?referrer=odpt,0,6,6,0
35.797051,139.601694,朝霞駅東口駅前広場(2),埼玉県朝霞市仲町2-2-34,486,False,street_parking,+8105038218282,False,https://www.hellocycling.jp/app/port/detail/486?referrer=odpt,https://www.hellocycling.jp/app/port/detail/486?referrer=odpt,https://www.hellocycling.jp/app/port/detail/486?referrer=odpt,7,9,2,6
35.794322,139.584821,膝折市民センター,埼玉県朝霞市膝折町1-7-40,487,False,street_parking,+8105038218282,False,https://www.hellocycling.jp/app/port/detail/487?referrer=odpt,https://www.hellocycling.jp/app/port/detail/487?referrer=odpt,https://www.hellocycling.jp/app/port/detail/487?referrer=odpt,5,5,0,5
35.457189,139.595768,セブンイレブン　横浜星川駅南店,神奈川県横浜市保土ケ谷区星川1-3-20,494,False,street_parking,+8105038218282,False,https://www.hellocycling.jp/app/port/detail/494?referrer=odpt,https://www.hellocycling.jp/app/port/detail/494?referrer=odpt,https://www.hellocycling.jp/app/port/detail/494?referrer=odpt,3,7,4,3
35.44566,139.59644,セブンイレブン　横浜帷子町2丁目店,神奈川県横浜市保土ケ谷区帷子町2-105,495,False,street_parking,+8105038218282,False,https://www.hellocycling.jp/app/port/detail/495?referrer=odpt,https://www.hellocycling.jp/app/port/detail/495?referrer=odpt,https://www.hellocycling.jp/app/port/detail/495?referrer=odpt,4,4,0,3
35.614852,139.60158,セブンイレブン　川崎宇奈根店,神奈川県川崎市高津区宇奈根618-2,500,False,street_parking,+8105038218282,False,https://www.hellocycling.jp/app/port/detail/500?referrer=odpt,https://www.hellocycling.jp/app/port/detail/500?referrer=odpt,https://www.hellocycling.jp/app/port/detail/500?referrer=odpt,2,4,2,2
35.893282,139.727795,浦和美園駅西口,埼玉県さいたま市緑区美園4-12,636,False,street_parking,+8105038218282,False,https://www.hellocycling.jp/app/port/detail/636?referrer=odpt,https://www.hellocycling.jp/app/port/detail/636?referrer=odpt,https://www.hellocycling.jp/app/port/detail/636?referrer=odpt,3,10,7,2
35.902104,139.73126,ウニクス浦和美園,埼玉県さいたま市岩槻区美園東2-17-13,637,False,street_parking,+8105038218282,False,https://www.hellocycling.jp/app/port/detail/637?referrer=odpt,https://www.hellocycling.jp/app/port/detail/637?referrer=odpt,https://www.hellocycling.jp/app/port/detail/637?referrer=odpt,6,6,0,6
35.648569,139.717327,ル・サイク広尾店,東京都渋谷区広尾1-10-8,662,False,street_parking,+8105038218282,False,https://www.hellocycling.jp/app/port/detail/662?referrer=odpt,https://www.hellocycling.jp/app/port/detail/662?referrer=odpt,https://www.hellocycling.jp/app/port/detail/662?referrer=odpt,0,2,2,0
35.528194,139.633805,セブンイレブン　横浜樽町店,神奈川県横浜市港北区樽町1-23-9,663,False,street_parking,+8105038218282,False,https://www.hellocycling.jp/app/port/detail/663?referrer=odpt,https://www.hellocycling.jp/app/port/detail/663?referrer=odpt,https://www.hellocycling.jp/app/port/detail/663?referrer=odpt,6,6,0,6
35.556879,139.644186,セブンイレブン　横浜日吉1丁目店,神奈川県横浜市港北区日吉1-1-14,664,False,street_parking,+8105038218282,False,https://www.hellocycling.jp/app/port/detail/664?referrer=odpt,https://www.hellocycling.jp/app/port/detail/664?referrer=odpt,https://www.hellocycling.jp/app/port/detail/664?referrer=odpt,0,4,4,0
35.549943,139.620499,セブンイレブン　横浜高田東3丁目店,神奈川県横浜市港北区高田東3-2-17,665,False,street_parking,+8105038218282,False,https://www.hellocycling.jp/app/port/detail/665?referrer=odpt,https://www.hellocycling.jp/app/port/detail/665?referrer=odpt,https://www.hellocycling.jp/app/port/detail/665?referrer=odpt,5,6,1,5
35.869922,139.70519,セブンイレブン　東浦和7丁目店,埼玉県さいたま市緑区東浦和7-19-1,666,False,street_parking,+8105038218282,False,https://www.hellocycling.jp/app/port/detail/666?referrer=odpt,https://www.hellocycling.jp/app/port/detail/666?referrer=odpt,https://www.hellocycling.jp/app/port/detail/666?referrer=odpt,5,5,0,4
35.864453,139.700891,セブンイレブン　東浦和駅北通り店,埼玉県さいたま市緑区東浦和3-1-1,668,False,street_parking,+8105038218282,False,https://www.hellocycling.jp/app/port/detail/668?referrer=odpt,https://www.hellocycling.jp/app/port/detail/668?referrer=odpt,https://www.hellocycling.jp/app/port/detail/668?referrer=odpt,4,6,2,3
35.806744,139.605124,根岸台市民センター,埼玉県朝霞市根岸台2-15-12,671,False,street_parking,+8105038218282,False,https://www.hellocycling.jp/app/port/detail/671?referrer=odpt,https://www.hellocycling.jp/app/port/detail/671?referrer=odpt,https://www.hellocycling.jp/app/port/detail/671?referrer=odpt,4,4,0,4
35.544743,139.616945,セブンイレブン　横浜新吉田東3丁目店,神奈川県横浜市港北区新吉田東3-37-21,672,False,street_parking,+8105038218282,False,https://www.hellocycling.jp/app/port/detail/672?referrer=odpt,https://www.hellocycling.jp/app/port/detail/672?referrer=odpt,https://www.hellocycling.jp/app/port/detail/672?referrer=odpt,5,5,0,4
35.807691,139.587157,溝沼市民センター,埼玉県朝霞市大字溝沼1057-3,673,False,street_parking,+8105038218282,False,https://www.hellocycling.jp/app/port/detail/673?referrer=odpt,https://www.hellocycling.jp/app/port/detail/673?referrer=odpt,https://www.hellocycling.jp/app/port/detail/673?referrer=odpt,3,4,1,3
35.574361,139.54995,セブンイレブン　横浜美しが丘5丁目店,神奈川県横浜市青葉区美しが丘5-30-1,674,False,street_parking,+8105038218282,False,https://www.hellocycling.jp/app/port/detail/674?referrer=odpt,https://www.hellocycling.jp/app/port/detail/674?referrer=odpt,https://www.hellocycling.jp/app/port/detail/674?referrer=odpt,8,8,0,8
35.500731,139.657041,セブンイレブン　横浜鶴見東寺尾3丁目店,神奈川県横浜市鶴見区東寺尾3-16-7,679,False,street_parking,+8105038218282,False,https://www.hellocycling.jp/app/port/detail/679?referrer=odpt,https://www.hellocycling.jp/app/port/detail/679?referrer=odpt,https://www.hellocycling.jp/app/port/detail/679?referrer=odpt,5,5,0,5
35.450475,139.502806,セブンイレブン　横浜阿久和西店,神奈川県横浜市瀬谷区阿久和西2-60-4,684,False,street_parking,+8105038218282,False,https://www.hellocycling.jp/app/port/detail/684?referrer=odpt,https://www.hellocycling.jp/app/port/detail/684?referrer=odpt,https://www.hellocycling.jp/app/port/detail/684?referrer=odpt,4,6,2,4
35.583384,139.655523,セブンイレブン　川崎小杉陣屋町2丁目店,神奈川県川崎市中原区小杉陣屋町2-6-28,686,False,street_parking,+8105038218282,False,https://www.hellocycling.jp/app/port/detail/686?referrer=odpt,https://www.hellocycling.jp/app/port/detail/686?referrer=odpt,https://www.hellocycling.jp/app/port/detail/686?referrer=odpt,2,10,8,1
35.60201,139.603841,セブンイレブン　川崎津田山店,神奈川県川崎市高津区下作延7-2-5,687,False,street_parking,+8105038218282,False,https://www.hellocycling.jp/app/port/detail/687?referrer=odpt,https://www.hellocycling.jp/app/port/detail/687?referrer=odpt,https://www.hellocycling.jp/app/port/detail/687?referrer=odpt,5,14,9,5
34.849217,138.253182,駅南サイクルパーク,静岡県藤枝市田沼1-1-1,689,False,street_parking,+8105038218282,False,https://www.hellocycling.jp/app/port/detail/689?referrer=odpt,https://www.hellocycling.jp/app/port/detail/689?referrer=odpt,https://www.hellocycling.jp/app/port/detail/689?referrer=odpt,5,8,3,5
34.867845,138.256963,藤枝市役所,静岡県藤枝市岡出山1-11-1,690,False,street_parking,+8105038218282,False,https://www.hellocycling.jp/app/port/detail/690?referrer=odpt,https://www.hellocycling.jp/app/port/detail/690?referrer=odpt,https://www.hellocycling.jp/app/port/detail/690?referrer=odpt,1,8,7,1
34.874233,138.259014,蓮華寺池公園,静岡県藤枝市若王子474-1,691,False,street_parking,+8105038218282,False,https://www.hellocycling.jp/app/port/detail/691?referrer=odpt,https://www.hellocycling.jp/app/port/detail/691?referrer=odpt,https://www.hellocycling.jp/app/port/detail/691?referrer=odpt,2,8,6,2
35.872826,139.646923,セブンイレブン　北浦和3丁目店,埼玉県さいたま市浦和区北浦和3-5-14,747,False,street_parking,+8105038218282,False,https://www.hellocycling.jp/app/port/detail/747?referrer=odpt,https://www.hellocycling.jp/app/port/detail/747?referrer=odpt,https://www.hellocycling.jp/app/port/detail/747?referrer=odpt,4,11,7,0
35.704099,139.617042,セブンイレブン　荻窪駅前店,東京都杉並区荻窪5-16-7,748,False,street_parking,+8105038218282,False,https://www.hellocycling.jp/app/port/detail/748?referrer=odpt,https://www.hellocycling.jp/app/port/detail/748?referrer=odpt,https://www.hellocycling.jp/app/port/detail/748?referrer=odpt,1,4,3,1
35.572679,139.700917,サイクルスポット池上店,東京都大田区大田区池上7-1-1,764,False,street_parking,+8105038218282,False,https://www.hellocycling.jp/app/port/detail/764?referrer=odpt,https://www.hellocycling.jp/app/port/detail/764?referrer=odpt,https://www.hellocycling.jp/app/port/detail/764?referrer=odpt,3,4,0,2
33.249461,130.299294,佐賀県庁,佐賀県佐賀市城内1-1-59,780,False,street_parking,+8105038218282,False,https://www.hellocycling.jp/app/port/detail/780?referrer=odpt,https://www.hellocycling.jp/app/port/detail/780?referrer=odpt,https://www.hellocycling.jp/app/port/detail/780?referrer=odpt,3,8,5,3
33.275619292965,130.29012411833,佐賀県総合運動場,佐賀県佐賀市日の出２丁目１－１０,781,False,street_parking,+8105038218282,False,https://www.hellocycling.jp/app/port/detail/781?referrer=odpt,https://www.hellocycling.jp/app/port/detail/781?referrer=odpt,https://www.hellocycling.jp/app/port/detail/781?referrer=odpt,2,6,4,2
33.277798,130.29381,佐賀県総合体育館,佐賀県佐賀市日の出1－21－15,782,False,street_parking,+8105038218282,False,https://www.hellocycling.jp/app/port/detail/782?referrer=odpt,https://www.hellocycling.jp/app/port/detail/782?referrer=odpt,https://www.hellocycling.jp/app/port/detail/782?referrer=odpt,0,8,8,0
33.264769711345,130.29775768518,佐賀駅北口,佐賀県佐賀市駅前中央１丁目１３,783,False,street_parking,+8105038218282,False,https://www.hellocycling.jp/app/port/detail/783?referrer=odpt,https://www.hellocycling.jp/app/port/detail/783?referrer=odpt,https://www.hellocycling.jp/app/port/detail/783?referrer=odpt,3,8,5,1
33.246692,130.301583,佐賀城本丸歴史館北側駐車場,佐賀県佐賀市城内２丁目１８－１,784,False,street_parking,+8105038218282,False,https://www.hellocycling.jp/app/port/detail/784?referrer=odpt,https://www.hellocycling.jp/app/port/detail/784?referrer=odpt,https://www.hellocycling.jp/app/port/detail/784?referrer=odpt,2,4,2,1
34.718364,135.416967,阪神尼崎駅南口,兵庫県尼崎市東御園町93,825,False,street_parking,+8105038218282,True,https://www.hellocycling.jp/app/port/detail/825?referrer=odpt,https://www.hellocycling.jp/app/port/detail/825?referrer=odpt,https://www.hellocycling.jp/app/port/detail/825?referrer=odpt,7,7,0,7
34.685333,135.458336,阪神千鳥橋駅前広場駐輪場,大阪府大阪市此花区四貫島1-1-4,826,False,street_parking,+8105038218282,False,https://www.hellocycling.jp/app/port/detail/826?referrer=odpt,https://www.hellocycling.jp/app/port/detail/826?referrer=odpt,https://www.hellocycling.jp/app/port/detail/826?referrer=odpt,2,5,3,2
35.6121085,140.1158952,JR千葉駅東口駅前大通り(2),千葉県千葉市中央区富士見2-2-3,847,False,street_parking,+8105038218282,False,https://www.hellocycling.jp/app/port/detail/847?referrer=odpt,https://www.hellocycling.jp/app/port/detail/847?referrer=odpt,https://www.hellocycling.jp/app/port/detail/847?referrer=odpt,0,5,5,0
35.6111236,140.118097,JR千葉駅東口駅前大通り(3),千葉県千葉市中央区富士見2-6-8 ,848,False,street_parking,+8105038218282,False,https://www.hellocycling.jp/app/port/detail/848?referrer=odpt,https://www.hellocycling.jp/app/port/detail/848?referrer=odpt,https://www.hellocycling.jp/app/port/detail/848?referrer=odpt,4,5,1,4
35.6133718,140.1119148,JR千葉駅西口駅前広場(1),千葉県千葉市中央区新千葉1-4-2 ,850,False,street_parking,+8105038218282,False,https://www.hellocycling.jp/app/port/detail/850?referrer=odpt,https://www.hellocycling.jp/app/port/detail/850?referrer=odpt,https://www.hellocycling.jp/app/port/detail/850?referrer=odpt,3,9,6,1
35.612543061281,140.11153781295,JR千葉駅西口駅前広場(2),千葉県千葉市中央区新千葉1-6-1 ,851,False,street_parking,+8105038218282,False,https://www.hellocycling.jp/app/port/detail/851?referrer=odpt,https://www.hellocycling.jp/app/port/detail/851?referrer=odpt,https://www.hellocycling.jp/app/port/detail/851?referrer=odpt,0,7,7,0
35.613728,140.1133867,JR千葉駅北口駅前広場①,千葉県千葉市中央区弁天1-1-5,852,False,street_parking,+8105038218282,False,https://www.hellocycling.jp/app/port/detail/852?referrer=odpt,https://www.hellocycling.jp/app/port/detail/852?referrer=odpt,https://www.hellocycling.jp/app/port/detail/852?referrer=odpt,7,20,13,7
35.607127,140.108344,千葉中央コミュニティセンター(1),千葉県千葉市中央区千葉港2-1　,855,False,street_parking,+8105038218282,False,https://www.hellocycling.jp/app/port/detail/855?referrer=odpt,https://www.hellocycling.jp/app/port/detail/855?referrer=odpt,https://www.hellocycling.jp/app/port/detail/855?referrer=odpt,1,6,5,1
35.6091929,140.1246855,千葉市美術館,千葉県千葉市中央区中央3-10-8,856,False,street_parking,+8105038218282,False,https://www.hellocycling.jp/app/port/detail/856?referrer=odpt,https://www.hellocycling.jp/app/port/detail/856?referrer=odpt,https://www.hellocycling.jp/app/port/detail/856?referrer=odpt,1,15,14,1
35.607986,140.101812,JR千葉みなと駅北口第2駐輪場,千葉県千葉市中央区千葉港1-1-2,857,False,street_parking,+8105038218282,False,https://www.hellocycling.jp/app/port/detail/857?referrer=odpt,https://www.hellocycling.jp/app/port/detail/857?referrer=odpt,https://www.hellocycling.jp/app/port/detail/857?referrer=odpt,0,7,7,0
35.602583,139.628932,セブンイレブン　川崎高津諏訪店,神奈川県川崎市高津区諏訪2-11-16,860,False,street_parking,+8105038218282,False,https://www.hellocycling.jp/app/port/detail/860?referrer=odpt,https://www.hellocycling.jp/app/port/detail/860?referrer=odpt,https://www.hellocycling.jp/app/port/detail/860?referrer=odpt,4,8,4,3
35.568125,139.663226,セブンイレブン　川崎中原市ノ坪店,神奈川県川崎市中原区市ノ坪381-1,861,False,street_parking,+8105038218282,False,https://www.hellocycling.jp/app/port/detail/861?referrer=odpt,https://www.hellocycling.jp/app/port/detail/861?referrer=odpt,https://www.hellocycling.jp/app/port/detail/861?referrer=odpt,10,12,2,8
35.563719,139.64034,セブンイレブン　川崎井田2丁目店,神奈川県川崎市中原区井田2-35-10,862,False,street_parking,+8105038218282,False,https://www.hellocycling.jp/app/port/detail/862?referrer=odpt,https://www.hellocycling.jp/app/port/detail/862?referrer=odpt,https://www.hellocycling.jp/app/port/detail/862?referrer=odpt,4,4,0,4
35.579379,139.636873,セブンイレブン　川崎下小田中1丁目店,神奈川県川崎市中原区下小田中1-19-12,863,False,street_parking,+8105038218282,False,https://www.hellocycling.jp/app/port/detail/863?referrer=odpt,https://www.hellocycling.jp/app/port/detail/863?referrer=odpt,https://www.hellocycling.jp/app/port/detail/863?referrer=odpt,10,10,0,10
35.579967,139.641266,セブンイレブン　武蔵中原駅前店,神奈川県川崎市中原区下小田中2-4-1,864,False,street_parking,+8105038218282,False,https://www.hellocycling.jp/app/port/detail/864?referrer=odpt,https://www.hellocycling.jp/app/port/detail/864?referrer=odpt,https://www.hellocycling.jp/app/port/detail/864?referrer=odpt,14,24,10,13
35.601161,139.620808,セブンイレブン　川崎二子店,神奈川県川崎市高津区二子6-1-7,865,False,street_parking,+8105038218282,False,https://www.hellocycling.jp/app/port/detail/865?referrer=odpt,https://www.hellocycling.jp/app/port/detail/865?referrer=odpt,https://www.hellocycling.jp/app/port/detail/865?referrer=odpt,4,5,1,4
35.600794,139.620282,セブンイレブン　川崎二子6丁目店,神奈川県川崎市高津区二子6-6-1,866,False,street_parking,+8105038218282,False,https://www.hellocycling.jp/app/port/detail/866?referrer=odpt,https://www.hellocycling.jp/app/port/detail/866?referrer=odpt,https://www.hellocycling.jp/app/port/detail/866?referrer=odpt,8,8,0,8
35.571497,139.581024,セブンイレブン　川崎有馬6丁目店,神奈川県川崎市宮前区有馬6-2-12,869,False,street_parking,+8105038218282,False,https://www.hellocycling.jp/app/port/detail/869?referrer=odpt,https://www.hellocycling.jp/app/port/detail/869?referrer=odpt,https://www.hellocycling.jp/app/port/detail/869?referrer=odpt,6,6,0,6
35.596869,139.550409,セブンイレブン　川崎菅生2丁目店,神奈川県川崎市宮前区菅生2-4-9,870,False,street_parking,+8105038218282,False,https://www.hellocycling.jp/app/port/detail/870?referrer=odpt,https://www.hellocycling.jp/app/port/detail/870?referrer=odpt,https://www.hellocycling.jp/app/port/detail/870?referrer=odpt,3,6,3,3
35.50552,139.614042,セブンイレブン　新横浜1丁目店,神奈川県横浜市港北区新横浜1-10-10,871,False,street_parking,+8105038218282,False,https://www.hellocycling.jp/app/port/detail/871?referrer=odpt,https://www.hellocycling.jp/app/port/detail/871?referrer=odpt,https://www.hellocycling.jp/app/port/detail/871?referrer=odpt,4,5,1,4
35.54058,139.641248,セブンイレブン　横浜綱島東2丁目店,神奈川県横浜市港北区綱島東2-19-21,872,False,street_parking,+8105038218282,False,https://www.hellocycling.jp/app/port/detail/872?referrer=odpt,https://www.hellocycling.jp/app/port/detail/872?referrer=odpt,https://www.hellocycling.jp/app/port/detail/872?referrer=odpt,5,5,0,5
35.52022,139.704027,セブンイレブン　川崎渡田3丁目店,神奈川県川崎市川崎区渡田3-1-2,874,False,street_parking,+8105038218282,False,https://www.hellocycling.jp/app/port/detail/874?referrer=odpt,https://www.hellocycling.jp/app/port/detail/874?referrer=odpt,https://www.hellocycling.jp/app/port/detail/874?referrer=odpt,7,7,0,6
35.529606,139.735372,セブンイレブン　川崎四谷上町北店,神奈川県川崎市川崎区四谷上町7-11,875,False,street_parking,+8105038218282,False,https://www.hellocycling.jp/app/port/detail/875?referrer=odpt,https://www.hellocycling.jp/app/port/detail/875?referrer=odpt,https://www.hellocycling.jp/app/port/detail/875?referrer=odpt,5,5,0,5
35.524553,139.700251,セブンイレブン　川崎元木1丁目店,神奈川県川崎市川崎区元木1-1-5,876,False,street_parking,+8105038218282,False,https://www.hellocycling.jp/app/port/detail/876?referrer=odpt,https://www.hellocycling.jp/app/port/detail/876?referrer=odpt,https://www.hellocycling.jp/app/port/detail/876?referrer=odpt,5,6,1,5
34.718879,135.437874,阪神杭瀬西第２駐輪場,兵庫県尼崎市杭瀬本町3-1,883,False,street_parking,+8105038218282,False,https://www.hellocycling.jp/app/port/detail/883?referrer=odpt,https://www.hellocycling.jp/app/port/detail/883?referrer=odpt,https://www.hellocycling.jp/app/port/detail/883?referrer=odpt,1,6,5,1
34.714574999999996,135.257239,阪神御影駐輪場,兵庫県神戸市東灘区御影本町2-17,884,False,street_parking,+8105038218282,False,https://www.hellocycling.jp/app/port/detail/884?referrer=odpt,https://www.hellocycling.jp/app/port/detail/884?referrer=odpt,https://www.hellocycling.jp/app/port/detail/884?referrer=odpt,0,5,5,0
34.700198998012,135.44243037701,阪神福駅前Ａ駐輪場,大阪府大阪市西淀川区福町2-3,885,False,street_parking,+8105038218282,False,https://www.hellocycling.jp/app/port/detail/885?referrer=odpt,https://www.hellocycling.jp/app/port/detail/885?referrer=odpt,https://www.hellocycling.jp/app/port/detail/885?referrer=odpt,5,10,5,4
34.682474,135.465714,阪神西九条駅東棟B駐輪場,大阪府大阪市此花区西九条３丁目１５－１３,886,False,street_parking,+8105038218282,False,https://www.hellocycling.jp/app/port/detail/886?referrer=odpt,https://www.hellocycling.jp/app/port/detail/886?referrer=odpt,https://www.hellocycling.jp/app/port/detail/886?referrer=odpt,2,5,3,2
34.850671848184,138.25062677264,藤枝市文化センター,静岡県藤枝市駅前二丁目1-5,889,False,street_parking,+8105038218282,False,https://www.hellocycling.jp/app/port/detail/889?referrer=odpt,https://www.hellocycling.jp/app/port/detail/889?referrer=odpt,https://www.hellocycling.jp/app/port/detail/889?referrer=odpt,2,6,4,2
34.851454,138.251393,まちづくり藤枝,静岡県藤枝市駅前二丁目7-26,890,False,street_parking,+8105038218282,False,https://www.hellocycling.jp/app/port/detail/890?referrer=odpt,https://www.hellocycling.jp/app/port/detail/890?referrer=odpt,https://www.hellocycling.jp/app/port/detail/890?referrer=odpt,3,3,0,3
35.892533,139.643097,サイクルベースあさひさいたま新都心店,埼玉県さいたま市大宮区北袋町1-218-1,892,False,street_parking,+8105038218282,False,https://www.hellocycling.jp/app/port/detail/892?referrer=odpt,https://www.hellocycling.jp/app/port/detail/892?referrer=odpt,https://www.hellocycling.jp/app/port/detail/892?referrer=odpt,4,4,0,2
35.590256,139.555223,セブンイレブン　川崎犬蔵3丁目店,神奈川県川崎市宮前区犬蔵3-8-7,893,False,street_parking,+8105038218282,False,https://www.hellocycling.jp/app/port/detail/893?referrer=odpt,https://www.hellocycling.jp/app/port/detail/893?referrer=odpt,https://www.hellocycling.jp/app/port/detail/893?referrer=odpt,6,6,0,5
35.601906,139.54159,セブンイレブン　川崎東長澤店,神奈川県川崎市多摩区南生田5-2-9,894,False,street_parking,+8105038218282,False,https://www.hellocycling.jp/app/port/detail/894?referrer=odpt,https://www.hellocycling.jp/app/port/detail/894?referrer=odpt,https://www.hellocycling.jp/app/port/detail/894?referrer=odpt,2,10,8,2
35.81245,139.597141,朝霞市博物館,埼玉県朝霞市岡2-7-22,895,False,street_parking,+8105038218282,False,https://www.hellocycling.jp/app/port/detail/895?referrer=odpt,https://www.hellocycling.jp/app/port/detail/895?referrer=odpt,https://www.hellocycling.jp/app/port/detail/895?referrer=odpt,1,5,4,1
35.634562,139.545966,セブンイレブン　川崎布田店,神奈川県川崎市多摩区布田31-27,896,False,street_parking,+8105038218282,False,https://www.hellocycling.jp/app/port/detail/896?referrer=odpt,https://www.hellocycling.jp/app/port/detail/896?referrer=odpt,https://www.hellocycling.jp/app/port/detail/896?referrer=odpt,8,8,0,7
35.638324,139.531894,セブンイレブン　川崎菅野戸呂店,神奈川県川崎市多摩区菅野戸呂15-22,897,False,street_parking,+8105038218282,False,https://www.hellocycling.jp/app/port/detail/897?referrer=odpt,https://www.hellocycling.jp/app/port/detail/897?referrer=odpt,https://www.hellocycling.jp/app/port/detail/897?referrer=odpt,6,6,0,6
35.610303,139.576105,セブンイレブン　川崎長尾橋店,神奈川県川崎市多摩区長尾4-3-25,898,False,street_parking,+8105038218282,False,https://www.hellocycling.jp/app/port/detail/898?referrer=odpt,https://www.hellocycling.jp/app/port/detail/898?referrer=odpt,https://www.hellocycling.jp/app/port/detail/898?referrer=odpt,9,10,1,9
35.611745,139.585807,セブンイレブン　川崎宿河原店,神奈川県川崎市多摩区宿河原6-18-2,899,False,street_parking,+8105038218282,False,https://www.hellocycling.jp/app/port/detail/899?referrer=odpt,https://www.hellocycling.jp/app/port/detail/899?referrer=odpt,https://www.hellocycling.jp/app/port/detail/899?referrer=odpt,5,5,0,5
35.599049,139.554544,セブンイレブン　川崎菅生1丁目店,神奈川県川崎市宮前区菅生1-8-25,900,False,street_parking,+8105038218282,False,https://www.hellocycling.jp/app/port/detail/900?referrer=odpt,https://www.hellocycling.jp/app/port/detail/900?referrer=odpt,https://www.hellocycling.jp/app/port/detail/900?referrer=odpt,6,6,0,6
35.81319,139.590771,朝霞市産業文化センター,埼玉県朝霞市大字浜崎669-1,905,False,street_parking,+8105038218282,False,https://www.hellocycling.jp/app/port/detail/905?referrer=odpt,https://www.hellocycling.jp/app/port/detail/905?referrer=odpt,https://www.hellocycling.jp/app/port/detail/905?referrer=odpt,7,7,0,7
35.370319,139.576631,セブンイレブン　横浜港南台9丁目店,神奈川県横浜市港南区港南台9-24-2,906,False,street_parking,+8105038218282,False,https://www.hellocycling.jp/app/port/detail/906?referrer=odpt,https://www.hellocycling.jp/app/port/detail/906?referrer=odpt,https://www.hellocycling.jp/app/port/detail/906?referrer=odpt,5,6,1,5
35.815287,139.587527,北朝霞駅前広場 (北朝霞駅近辺),埼玉県朝霞市浜崎1-2地内,907,False,street_parking,+8105038218282,False,https://www.hellocycling.jp/app/port/detail/907?referrer=odpt,https://www.hellocycling.jp/app/port/detail/907?referrer=odpt,https://www.hellocycling.jp/app/port/detail/907?referrer=odpt,19,53,34,19
35.524674,139.647124,トレッサ横浜,神奈川県横浜市港北区師岡町700,913,False,street_parking,+8105038218282,False,https://www.hellocycling.jp/app/port/detail/913?referrer=odpt,https://www.hellocycling.jp/app/port/detail/913?referrer=odpt,https://www.hellocycling.jp/app/port/detail/913?referrer=odpt,20,20,0,20
35.595368,139.626099,セブンイレブン　川崎坂戸2丁目店,神奈川県川崎市高津区坂戸2-8-5,1361,False,street_parking,+8105038218282,False,https://www.hellocycling.jp/app/port/detail/1361?referrer=odpt,https://www.hellocycling.jp/app/port/detail/1361?referrer=odpt,https://www.hellocycling.jp/app/port/detail/1361?referrer=odpt,6,6,0,6
35.597064,139.571846,セブンイレブン　川崎平4丁目店,神奈川県川崎市宮前区平4-5-19,1362,False,street_parking,+8105038218282,False,https://www.hellocycling.jp/app/port/detail/1362?referrer=odpt,https://www.hellocycling.jp/app/port/detail/1362?referrer=odpt,https://www.hellocycling.jp/app/port/detail/1362?referrer=odpt,5,12,7,4
35.53291,139.70144,セブンイレブン　川崎駅北店,神奈川県川崎市川崎区砂子1-4-2-5,1364,False,street_parking,+8105038218282,False,https://www.hellocycling.jp/app/port/detail/1364?referrer=odpt,https://www.hellocycling.jp/app/port/detail/1364?referrer=odpt,https://www.hellocycling.jp/app/port/detail/1364?referrer=odpt,4,4,0,4
35.544948,139.660971,セブンイレブン　川崎南加瀬3丁目店,神奈川県川崎市幸区南加瀬3-8-20,1365,False,street_parking,+8105038218282,False,https://www.hellocycling.jp/app/port/detail/1365?referrer=odpt,https://www.hellocycling.jp/app/port/detail/1365?referrer=odpt,https://www.hellocycling.jp/app/port/detail/1365?referrer=odpt,10,11,1,9
35.47639,139.54257,セブンイレブン　横浜鶴ヶ峰本町南店,神奈川県横浜市旭区鶴ヶ峰本町1-35-25,1369,False,street_parking,+8105038218282,False,https://www.hellocycling.jp/app/port/detail/1369?referrer=odpt,https://www.hellocycling.jp/app/port/detail/1369?referrer=odpt,https://www.hellocycling.jp/app/port/detail/1369?referrer=odpt,5,5,0,5
35.582797,139.591775,セブンイレブン　川崎馬絹西店,神奈川県川崎市宮前区馬絹1650-1,1370,False,street_parking,+8105038218282,False,https://www.hellocycling.jp/app/port/detail/1370?referrer=odpt,https://www.hellocycling.jp/app/port/detail/1370?referrer=odpt,https://www.hellocycling.jp/app/port/detail/1370?referrer=odpt,1,5,4,1
35.567302,139.648336,セブンイレブン　川崎木月祗園町店,神奈川県川崎市中原区木月祗園町1-4,1391,False,street_parking,+8105038218282,False,https://www.hellocycling.jp/app/port/detail/1391?referrer=odpt,https://www.hellocycling.jp/app/port/detail/1391?referrer=odpt,https://www.hellocycling.jp/app/port/detail/1391?referrer=odpt,6,7,1,6
35.564488,139.611816,セブンイレブン　川崎高津野川店,神奈川県川崎市高津区野川4012,1392,False,street_parking,+8105038218282,False,https://www.hellocycling.jp/app/port/detail/1392?referrer=odpt,https://www.hellocycling.jp/app/port/detail/1392?referrer=odpt,https://www.hellocycling.jp/app/port/detail/1392?referrer=odpt,3,4,1,3
35.572674,139.631961,セブンイレブン　川崎子母口東店,神奈川県川崎市高津区子母口496,1393,False,street_parking,+8105038218282,False,https://www.hellocycling.jp/app/port/detail/1393?referrer=odpt,https://www.hellocycling.jp/app/port/detail/1393?referrer=odpt,https://www.hellocycling.jp/app/port/detail/1393?referrer=odpt,7,7,0,6
35.537481,139.743522,セブンイレブン　川崎浮島通り店,神奈川県川崎市川崎区殿町1-15-17,1395,False,street_parking,+8105038218282,False,https://www.hellocycling.jp/app/port/detail/1395?referrer=odpt,https://www.hellocycling.jp/app/port/detail/1395?referrer=odpt,https://www.hellocycling.jp/app/port/detail/1395?referrer=odpt,6,6,0,6
35.536219,139.726945,セブンイレブン　川崎大師駅北店,神奈川県川崎市川崎区中瀬2-1,1396,False,street_parking,+8105038218282,False,https://www.hellocycling.jp/app/port/detail/1396?referrer=odpt,https://www.hellocycling.jp/app/port/detail/1396?referrer=odpt,https://www.hellocycling.jp/app/port/detail/1396?referrer=odpt,5,5,0,3
35.647837,140.081863,セブンイレブン　検見川東店,千葉県千葉市稲毛区稲毛町5-340-8,1402,False,street_parking,+8105038218282,False,https://www.hellocycling.jp/app/port/detail/1402?referrer=odpt,https://www.hellocycling.jp/app/port/detail/1402?referrer=odpt,https://www.hellocycling.jp/app/port/detail/1402?referrer=odpt,6,8,2,6
35.655155,140.059831,セブンイレブン　向原店　,千葉県千葉市花見川区幕張町5-408,1404,False,street_parking,+8105038218282,False,https://www.hellocycling.jp/app/port/detail/1404?referrer=odpt,https://www.hellocycling.jp/app/port/detail/1404?referrer=odpt,https://www.hellocycling.jp/app/port/detail/1404?referrer=odpt,3,3,0,3
35.662487,140.046993,セブンイレブン　幕張店,千葉県千葉市花見川区幕張町1-1341,1405,False,street_parking,+8105038218282,False,https://www.hellocycling.jp/app/port/detail/1405?referrer=odpt,https://www.hellocycling.jp/app/port/detail/1405?referrer=odpt,https://www.hellocycling.jp/app/port/detail/1405?referrer=odpt,3,6,3,3
35.66468,140.03705,セブンイレブン　幕張西店,千葉県千葉市美浜区幕張西2-7-19,1406,False,street_parking,+8105038218282,False,https://www.hellocycling.jp/app/port/detail/1406?referrer=odpt,https://www.hellocycling.jp/app/port/detail/1406?referrer=odpt,https://www.hellocycling.jp/app/port/detail/1406?referrer=odpt,3,11,8,3
26.219242,127.675518,那覇市松山　ChulaVista松山Biz,沖縄県那覇市松山1丁目32-5,1412,False,street_parking,+8105038218282,False,https://www.hellocycling.jp/app/port/detail/1412?referrer=odpt,https://www.hellocycling.jp/app/port/detail/1412?referrer=odpt,https://www.hellocycling.jp/app/port/detail/1412?referrer=odpt,2,4,2,1
35.603816,139.614127,セブンイレブン　川崎溝口3丁目店,神奈川県川崎市高津区溝口3-9-8,1413,False,street_parking,+8105038218282,False,https://www.hellocycling.jp/app/port/detail/1413?referrer=odpt,https://www.hellocycling.jp/app/port/detail/1413?referrer=odpt,https://www.hellocycling.jp/app/port/detail/1413?referrer=odpt,3,5,2,2
35.512039,139.711977,セブンイレブン　川崎鋼管通4丁目店,神奈川県川崎市川崎区鋼管通4-12-15,1415,False,street_parking,+8105038218282,False,https://www.hellocycling.jp/app/port/detail/1415?referrer=odpt,https://www.hellocycling.jp/app/port/detail/1415?referrer=odpt,https://www.hellocycling.jp/app/port/detail/1415?referrer=odpt,2,4,2,1
35.594483,139.637951,セブンイレブン　川崎下野毛3丁目店,神奈川県川崎市高津区下野毛3-4-3,1416,False,street_parking,+8105038218282,False,https://www.hellocycling.jp/app/port/detail/1416?referrer=odpt,https://www.hellocycling.jp/app/port/detail/1416?referrer=odpt,https://www.hellocycling.jp/app/port/detail/1416?referrer=odpt,2,5,3,1
35.50859,139.70886,セブンイレブン　川崎小田7丁目店,神奈川県川崎市川崎区小田7-2-2,1417,False,street_parking,+8105038218282,False,https://www.hellocycling.jp/app/port/detail/1417?referrer=odpt,https://www.hellocycling.jp/app/port/detail/1417?referrer=odpt,https://www.hellocycling.jp/app/port/detail/1417?referrer=odpt,3,7,4,2
35.890175,139.617453,セブンイレブン　さいたま本町西5丁目店,埼玉県さいたま市中央区本町西5丁目1-5,1418,False,street_parking,+8105038218282,False,https://www.hellocycling.jp/app/port/detail/1418?referrer=odpt,https://www.hellocycling.jp/app/port/detail/1418?referrer=odpt,https://www.hellocycling.jp/app/port/detail/1418?referrer=odpt,10,14,4,9
35.529782,139.642051,セブンイレブン　横浜樽町4丁目店,神奈川県横浜市港北区樽町4-13-20,1419,False,street_parking,+8105038218282,False,https://www.hellocycling.jp/app/port/detail/1419?referrer=odpt,https://www.hellocycling.jp/app/port/detail/1419?referrer=odpt,https://www.hellocycling.jp/app/port/detail/1419?referrer=odpt,4,5,1,4
35.816276,139.599429,健康増進センター(わくわくどーむ),埼玉県朝霞市大字浜崎27地内,1420,False,street_parking,+8105038218282,False,https://www.hellocycling.jp/app/port/detail/1420?referrer=odpt,https://www.hellocycling.jp/app/port/detail/1420?referrer=odpt,https://www.hellocycling.jp/app/port/detail/1420?referrer=odpt,4,8,4,4
35.423127,139.531977,セブンイレブン　横浜日の森店,神奈川県横浜市戸塚区上矢部町1645,1423,False,street_parking,+8105038218282,False,https://www.hellocycling.jp/app/port/detail/1423?referrer=odpt,https://www.hellocycling.jp/app/port/detail/1423?referrer=odpt,https://www.hellocycling.jp/app/port/detail/1423?referrer=odpt,5,6,1,5
35.676921005538,139.45904374123,サイクルベースあさひ府中店,東京都府中市本宿町4-30-3,1426,False,street_parking,+8105038218282,False,https://www.hellocycling.jp/app/port/detail/1426?referrer=odpt,https://www.hellocycling.jp/app/port/detail/1426?referrer=odpt,https://www.hellocycling.jp/app/port/detail/1426?referrer=odpt,2,6,4,2
35.520088,139.701529,セブンイレブン　川崎市電通り店,神奈川県川崎市川崎区渡田新町2-8-2,1428,False,street_parking,+8105038218282,False,https://www.hellocycling.jp/app/port/detail/1428?referrer=odpt,https://www.hellocycling.jp/app/port/detail/1428?referrer=odpt,https://www.hellocycling.jp/app/port/detail/1428?referrer=odpt,5,5,0,4
35.824949,139.589273,宮戸市民センター,埼玉県朝霞市宮戸1-2-60,1432,False,street_parking,+8105038218282,False,https://www.hellocycling.jp/app/port/detail/1432?referrer=odpt,https://www.hellocycling.jp/app/port/detail/1432?referrer=odpt,https://www.hellocycling.jp/app/port/detail/1432?referrer=odpt,2,5,3,2
35.823652,139.606594,内間木公園,埼玉県朝霞市大字上内間木518-3,1433,False,street_parking,+8105038218282,False,https://www.hellocycling.jp/app/port/detail/1433?referrer=odpt,https://www.hellocycling.jp/app/port/detail/1433?referrer=odpt,https://www.hellocycling.jp/app/port/detail/1433?referrer=odpt,0,4,4,0
35.900347,139.600152,サイクルベースあさひ大宮三橋店,埼玉県さいたま市大宮区三橋2-327-3,1444,False,street_parking,+8105038218282,False,https://www.hellocycling.jp/app/port/detail/1444?referrer=odpt,https://www.hellocycling.jp/app/port/detail/1444?referrer=odpt,https://www.hellocycling.jp/app/port/detail/1444?referrer=odpt,0,4,4,0
35.941974,139.643952,サイクルベースあさひ東大宮店,埼玉県さいたま市見沼区東大宮7-52-5,1445,False,street_parking,+8105038218282,False,https://www.hellocycling.jp/app/port/detail/1445?referrer=odpt,https://www.hellocycling.jp/app/port/detail/1445?referrer=odpt,https://www.hellocycling.jp/app/port/detail/1445?referrer=odpt,2,6,3,2
35.939918,139.614238,サイクルベースあさひ大宮宮原店,埼玉県さいたま市北区宮原町2-44-1,1446,False,street_parking,+8105038218282,False,https://www.hellocycling.jp/app/port/detail/1446?referrer=odpt,https://www.hellocycling.jp/app/port/detail/1446?referrer=odpt,https://www.hellocycling.jp/app/port/detail/1446?referrer=odpt,6,6,0,5
35.858968,139.622225,セブンイレブン　さいたま町谷1丁目店,埼玉県さいたま市桜区町谷1-16-11,1448,False,street_parking,+8105038218282,False,https://www.hellocycling.jp/app/port/detail/1448?referrer=odpt,https://www.hellocycling.jp/app/port/detail/1448?referrer=odpt,https://www.hellocycling.jp/app/port/detail/1448?referrer=odpt,4,6,2,4
35.697128,139.799661,セブンイレブン　墨田亀沢1丁目店,東京都墨田区亀沢1-12-8,1473,False,street_parking,+8105038218282,False,https://www.hellocycling.jp/app/port/detail/1473?referrer=odpt,https://www.hellocycling.jp/app/port/detail/1473?referrer=odpt,https://www.hellocycling.jp/app/port/detail/1473?referrer=odpt,3,4,1,3
35.693611,139.805354,セブンイレブン　墨田緑3丁目店,東京都墨田区緑3-5-9,1474,False,street_parking,+8105038218282,False,https://www.hellocycling.jp/app/port/detail/1474?referrer=odpt,https://www.hellocycling.jp/app/port/detail/1474?referrer=odpt,https://www.hellocycling.jp/app/port/detail/1474?referrer=odpt,4,4,0,3
35.7171301,139.8231999,セブンイレブン　墨田京島3丁目明治通り店,東京都墨田区京島3-13-3,1475,False,street_parking,+8105038218282,False,https://www.hellocycling.jp/app/port/detail/1475?referrer=odpt,https://www.hellocycling.jp/app/port/detail/1475?referrer=odpt,https://www.hellocycling.jp/app/port/detail/1475?referrer=odpt,2,3,1,1
35.718299,139.816347,セブンイレブン　東武曳舟駅前店,東京都墨田区東向島2-16-14,1477,False,street_parking,+8105038218282,False,https://www.hellocycling.jp/app/port/detail/1477?referrer=odpt,https://www.hellocycling.jp/app/port/detail/1477?referrer=odpt,https://www.hellocycling.jp/app/port/detail/1477?referrer=odpt,3,4,1,3
35.640633,139.612677,セブンイレブン　世田谷砧4丁目店,東京都世田谷区砧4-6-8,1478,False,street_parking,+8105038218282,False,https://www.hellocycling.jp/app/port/detail/1478?referrer=odpt,https://www.hellocycling.jp/app/port/detail/1478?referrer=odpt,https://www.hellocycling.jp/app/port/detail/1478?referrer=odpt,3,6,3,3
35.7264626,139.8047155,セブンイレブン　台東石浜店,東京都台東区清川2-1-1,1479,False,street_parking,+8105038218282,False,https://www.hellocycling.jp/app/port/detail/1479?referrer=odpt,https://www.hellocycling.jp/app/port/detail/1479?referrer=odpt,https://www.hellocycling.jp/app/port/detail/1479?referrer=odpt,6,7,0,6
35.646262,139.659848,セブンイレブン　世田谷若林4丁目店,東京都世田谷区若林4-3-11,1480,False,street_parking,+8105038218282,False,https://www.hellocycling.jp/app/port/detail/1480?referrer=odpt,https://www.hellocycling.jp/app/port/detail/1480?referrer=odpt,https://www.hellocycling.jp/app/port/detail/1480?referrer=odpt,5,7,2,5
35.64027,139.644035,セブンイレブン　世田谷駒留通り店,東京都世田谷区世田谷1-41-5,1481,False,street_parking,+8105038218282,False,https://www.hellocycling.jp/app/port/detail/1481?referrer=odpt,https://www.hellocycling.jp/app/port/detail/1481?referrer=odpt,https://www.hellocycling.jp/app/port/detail/1481?referrer=odpt,4,4,0,4
35.83687,139.637608,セブンイレブン　さいたま曲本3丁目店,埼玉県さいたま市南区曲本3-5-1,1489,False,street_parking,+8105038218282,False,https://www.hellocycling.jp/app/port/detail/1489?referrer=odpt,https://www.hellocycling.jp/app/port/detail/1489?referrer=odpt,https://www.hellocycling.jp/app/port/detail/1489?referrer=odpt,5,8,3,5
35.86462,139.604867,セブンイレブン　浦和埼玉大学店,埼玉県さいたま市桜区大久保765,1491,False,street_parking,+8105038218282,False,https://www.hellocycling.jp/app/port/detail/1491?referrer=odpt,https://www.hellocycling.jp/app/port/detail/1491?referrer=odpt,https://www.hellocycling.jp/app/port/detail/1491?referrer=odpt,9,9,0,7
34.473023,134.284426,◆小豆島◆オリーブユースホステル,香川県小豆島町香川県小豆郡小豆島町西村甲１０７２,1492,False,street_parking,+8105038218282,False,https://www.hellocycling.jp/app/port/detail/1492?referrer=odpt,https://www.hellocycling.jp/app/port/detail/1492?referrer=odpt,https://www.hellocycling.jp/app/port/detail/1492?referrer=odpt,3,6,3,3
35.617954,140.114046,中央図書館・生涯学習センター,千葉県千葉市中央区弁天3-7-7,1503,False,street_parking,+8105038218282,False,https://www.hellocycling.jp/app/port/detail/1503?referrer=odpt,https://www.hellocycling.jp/app/port/detail/1503?referrer=odpt,https://www.hellocycling.jp/app/port/detail/1503?referrer=odpt,4,7,3,4
35.603845,140.110992,千葉ポートアリーナ,千葉県千葉市中央区問屋町1-20,1504,False,street_parking,+8105038218282,False,https://www.hellocycling.jp/app/port/detail/1504?referrer=odpt,https://www.hellocycling.jp/app/port/detail/1504?referrer=odpt,https://www.hellocycling.jp/app/port/detail/1504?referrer=odpt,9,19,10,9
34.480823,134.225658,◆小豆島◆ギフトハウスナガセ,香川県小豆島町小豆島郡小豆島町池田２２８－３６,1506,False,street_parking,+8105038218282,False,https://www.hellocycling.jp/app/port/detail/1506?referrer=odpt,https://www.hellocycling.jp/app/port/detail/1506?referrer=odpt,https://www.hellocycling.jp/app/port/detail/1506?referrer=odpt,4,4,0,4
35.561224,139.675395,セブンイレブン　川崎ガス橋通り店,神奈川県川崎市中原区上平間190-23,1512,False,street_parking,+8105038218282,False,https://www.hellocycling.jp/app/port/detail/1512?referrer=odpt,https://www.hellocycling.jp/app/port/detail/1512?referrer=odpt,https://www.hellocycling.jp/app/port/detail/1512?referrer=odpt,5,5,0,5
35.572722,139.618553,セブンイレブン　川崎野川東店,神奈川県川崎市高津区野川3705-1,1513,False,street_parking,+8105038218282,False,https://www.hellocycling.jp/app/port/detail/1513?referrer=odpt,https://www.hellocycling.jp/app/port/detail/1513?referrer=odpt,https://www.hellocycling.jp/app/port/detail/1513?referrer=odpt,3,5,2,2
35.586583,139.618985,セブンイレブン　川崎新作店,神奈川県川崎市高津区新作4-12-4,1514,False,street_parking,+8105038218282,False,https://www.hellocycling.jp/app/port/detail/1514?referrer=odpt,https://www.hellocycling.jp/app/port/detail/1514?referrer=odpt,https://www.hellocycling.jp/app/port/detail/1514?referrer=odpt,5,5,0,5
35.599605,139.534996,セブンイレブン　川崎長沢4丁目店,神奈川県川崎市多摩区長沢4-27-4,1515,False,street_parking,+8105038218282,False,https://www.hellocycling.jp/app/port/detail/1515?referrer=odpt,https://www.hellocycling.jp/app/port/detail/1515?referrer=odpt,https://www.hellocycling.jp/app/port/detail/1515?referrer=odpt,5,5,0,5
35.54997,139.656231,セブンイレブン　横浜日吉宮前店,神奈川県横浜市港北区日吉5-27-22,1518,False,street_parking,+8105038218282,False,https://www.hellocycling.jp/app/port/detail/1518?referrer=odpt,https://www.hellocycling.jp/app/port/detail/1518?referrer=odpt,https://www.hellocycling.jp/app/port/detail/1518?referrer=odpt,5,5,0,5
35.807415,139.576183,セブンイレブン　朝霞三原5丁目店,埼玉県朝霞市三原5-2-8,1519,False,street_parking,+8105038218282,False,https://www.hellocycling.jp/app/port/detail/1519?referrer=odpt,https://www.hellocycling.jp/app/port/detail/1519?referrer=odpt,https://www.hellocycling.jp/app/port/detail/1519?referrer=odpt,5,6,1,5
35.724977,139.614646,セブンイレブン　井荻駅北口店,東京都杉並区井草3-6-3,1523,False,street_parking,+8105038218282,False,https://www.hellocycling.jp/app/port/detail/1523?referrer=odpt,https://www.hellocycling.jp/app/port/detail/1523?referrer=odpt,https://www.hellocycling.jp/app/port/detail/1523?referrer=odpt,2,8,6,1
35.722938,139.638946,セブンイレブン　中野鷺ノ宮駅前店,東京都中野区鷺宮3-1208,1524,False,street_parking,+8105038218282,False,https://www.hellocycling.jp/app/port/detail/1524?referrer=odpt,https://www.hellocycling.jp/app/port/detail/1524?referrer=odpt,https://www.hellocycling.jp/app/port/detail/1524?referrer=odpt,6,6,0,4
35.71526,139.65874,セブンイレブン　中野野方2丁目店,東京都中野区野方2-4-3,1525,False,street_parking,+8105038218282,False,https://www.hellocycling.jp/app/port/detail/1525?referrer=odpt,https://www.hellocycling.jp/app/port/detail/1525?referrer=odpt,https://www.hellocycling.jp/app/port/detail/1525?referrer=odpt,15,21,5,12
35.706091,139.804332,セブンイレブン　墨田東駒形3丁目店,東京都墨田区東駒形3-5-10,1529,False,street_parking,+8105038218282,False,https://www.hellocycling.jp/app/port/detail/1529?referrer=odpt,https://www.hellocycling.jp/app/port/detail/1529?referrer=odpt,https://www.hellocycling.jp/app/port/detail/1529?referrer=odpt,2,5,3,2
35.706685,139.808797,セブンイレブン　墨田業平1丁目店,東京都墨田区業平1-1-6,1530,False,street_parking,+8105038218282,False,https://www.hellocycling.jp/app/port/detail/1530?referrer=odpt,https://www.hellocycling.jp/app/port/detail/1530?referrer=odpt,https://www.hellocycling.jp/app/port/detail/1530?referrer=odpt,1,4,3,1
35.715482,139.801662,セブンイレブン　台東浅草6丁目店,東京都台東区浅草6-1-18,1531,False,street_parking,+8105038218282,False,https://www.hellocycling.jp/app/port/detail/1531?referrer=odpt,https://www.hellocycling.jp/app/port/detail/1531?referrer=odpt,https://www.hellocycling.jp/app/port/detail/1531?referrer=odpt,4,4,0,4
35.720486,139.829964,セブンイレブン　墨田八広4丁目店,東京都墨田区八広4-48-17,1532,False,street_parking,+8105038218282,False,https://www.hellocycling.jp/app/port/detail/1532?referrer=odpt,https://www.hellocycling.jp/app/port/detail/1532?referrer=odpt,https://www.hellocycling.jp/app/port/detail/1532?referrer=odpt,9,11,2,8
35.733879,139.819187,セブンイレブン　墨田5丁目店,東京都墨田区墨田5-43-16,1533,False,street_parking,+8105038218282,False,https://www.hellocycling.jp/app/port/detail/1533?referrer=odpt,https://www.hellocycling.jp/app/port/detail/1533?referrer=odpt,https://www.hellocycling.jp/app/port/detail/1533?referrer=odpt,6,6,0,6
35.904935,139.622569,大宮スカイプラザ（そごう大宮店）,埼玉県さいたま市大宮区桜木町1-6,1536,False,street_parking,+8105038218282,False,https://www.hellocycling.jp/app/port/detail/1536?referrer=odpt,https://www.hellocycling.jp/app/port/detail/1536?referrer=odpt,https://www.hellocycling.jp/app/port/detail/1536?referrer=odpt,8,12,4,7
35.860401,139.65498,イトーヨーカドー 浦和店(1),埼玉県さいたま市浦和区仲町1-7-1,1537,False,street_parking,+8105038218282,False,https://www.hellocycling.jp/app/port/detail/1537?referrer=odpt,https://www.hellocycling.jp/app/port/detail/1537?referrer=odpt,https://www.hellocycling.jp/app/port/detail/1537?referrer=odpt,4,5,1,1
35.860557,139.654965,イトーヨーカドー 浦和店(2),埼玉県さいたま市浦和区仲町1-7-1,1538,False,street_parking,+8105038218282,False,https://www.hellocycling.jp/app/port/detail/1538?referrer=odpt,https://www.hellocycling.jp/app/port/detail/1538?referrer=odpt,https://www.hellocycling.jp/app/port/detail/1538?referrer=odpt,0,6,6,0
34.488779,134.173626,◆小豆島◆土庄港観光センター,香川県土庄町香川県小豆郡土庄町甲６１９４−１０,1546,False,street_parking,+8105038218282,False,https://www.hellocycling.jp/app/port/detail/1546?referrer=odpt,https://www.hellocycling.jp/app/port/detail/1546?referrer=odpt,https://www.hellocycling.jp/app/port/detail/1546?referrer=odpt,12,30,18,12
34.480443,134.220201,◆小豆島◆井上誠耕園らしく園前,香川県小豆島町香川県小豆郡小豆島町蒲生甲61-4,1547,False,street_parking,+8105038218282,False,https://www.hellocycling.jp/app/port/detail/1547?referrer=odpt,https://www.hellocycling.jp/app/port/detail/1547?referrer=odpt,https://www.hellocycling.jp/app/port/detail/1547?referrer=odpt,0,6,6,0
34.475641,134.170188,◆小豆島◆ホテルニュー海風,香川県土庄町香川県小豆郡土庄町鹿島甲２１１１−１,1550,False,street_parking,+8105038218282,False,https://www.hellocycling.jp/app/port/detail/1550?referrer=odpt,https://www.hellocycling.jp/app/port/detail/1550?referrer=odpt,https://www.hellocycling.jp/app/port/detail/1550?referrer=odpt,4,12,8,4
35.11021,138.915899,サイクルベースあさひ三島店,静岡県三島市富田町1-23,1552,False,street_parking,+8105038218282,False,https://www.hellocycling.jp/app/port/detail/1552?referrer=odpt,https://www.hellocycling.jp/app/port/detail/1552?referrer=odpt,https://www.hellocycling.jp/app/port/detail/1552?referrer=odpt,4,4,0,3
35.876044,139.511719,シルク サイクル,埼玉県ふじみ野市上福岡1-10-1,1553,False,street_parking,+8105038218282,False,https://www.hellocycling.jp/app/port/detail/1553?referrer=odpt,https://www.hellocycling.jp/app/port/detail/1553?referrer=odpt,https://www.hellocycling.jp/app/port/detail/1553?referrer=odpt,3,3,0,3
35.758123,139.467186,サイクルスポット東村山店,東京都東村山市本町2-21-1,1556,False,street_parking,+8105038218282,False,https://www.hellocycling.jp/app/port/detail/1556?referrer=odpt,https://www.hellocycling.jp/app/port/detail/1556?referrer=odpt,https://www.hellocycling.jp/app/port/detail/1556?referrer=odpt,4,4,0,1
35.650376,140.091899,セブンイレブン　千葉小中台町店,千葉県千葉市稲毛区小中台町482-11,1559,False,street_parking,+8105038218282,False,https://www.hellocycling.jp/app/port/detail/1559?referrer=odpt,https://www.hellocycling.jp/app/port/detail/1559?referrer=odpt,https://www.hellocycling.jp/app/port/detail/1559?referrer=odpt,4,6,2,4
35.8202529,139.5822329,セブンイレブン　朝霞朝志ヶ丘1丁目店,埼玉県朝霞市朝志ヶ丘1-5-20,1560,False,street_parking,+8105038218282,False,https://www.hellocycling.jp/app/port/detail/1560?referrer=odpt,https://www.hellocycling.jp/app/port/detail/1560?referrer=odpt,https://www.hellocycling.jp/app/port/detail/1560?referrer=odpt,1,6,5,0
35.8193949,139.5979309,セブンイレブン　朝霞浜崎4丁目店,埼玉県朝霞市浜崎4-7-55,1561,False,street_parking,+8105038218282,False,https://www.hellocycling.jp/app/port/detail/1561?referrer=odpt,https://www.hellocycling.jp/app/port/detail/1561?referrer=odpt,https://www.hellocycling.jp/app/port/detail/1561?referrer=odpt,10,10,0,10
35.814248,139.597228,セブンイレブン　朝霞市博物館前店,埼玉県朝霞市大字岡216-1,1562,False,street_parking,+8105038218282,False,https://www.hellocycling.jp/app/port/detail/1562?referrer=odpt,https://www.hellocycling.jp/app/port/detail/1562?referrer=odpt,https://www.hellocycling.jp/app/port/detail/1562?referrer=odpt,6,8,2,6
35.811185,139.594606,セブンイレブン　朝霞東洋大学前店,埼玉県朝霞市溝沼1336-1,1563,False,street_parking,+8105038218282,False,https://www.hellocycling.jp/app/port/detail/1563?referrer=odpt,https://www.hellocycling.jp/app/port/detail/1563?referrer=odpt,https://www.hellocycling.jp/app/port/detail/1563?referrer=odpt,5,7,2,5
34.953158,137.1809,岡崎げんき館,愛知県岡崎市若宮町２丁目１番地１,1564,False,street_parking,+8105038218282,False,https://www.hellocycling.jp/app/port/detail/1564?referrer=odpt,https://www.hellocycling.jp/app/port/detail/1564?referrer=odpt,https://www.hellocycling.jp/app/port/detail/1564?referrer=odpt,14,14,0,14
35.573812,140.143878,セブンイレブン　千葉大巌寺店,千葉県千葉市中央区大巌寺町275,1566,False,street_parking,+8105038218282,False,https://www.hellocycling.jp/app/port/detail/1566?referrer=odpt,https://www.hellocycling.jp/app/port/detail/1566?referrer=odpt,https://www.hellocycling.jp/app/port/detail/1566?referrer=odpt,3,6,3,3
34.48046,134.224923,◆小豆島◆池田港バス停付近（国道沿い）,香川県小豆島町香川県小豆郡小豆島町池田１−６,1602,False,street_parking,+8105038218282,False,https://www.hellocycling.jp/app/port/detail/1602?referrer=odpt,https://www.hellocycling.jp/app/port/detail/1602?referrer=odpt,https://www.hellocycling.jp/app/port/detail/1602?referrer=odpt,5,15,10,5
34.476303,134.179402,◆小豆島◆マルナカ温泉,香川県土庄町甲１３６０−７９,1604,False,street_parking,+8105038218282,False,https://www.hellocycling.jp/app/port/detail/1604?referrer=odpt,https://www.hellocycling.jp/app/port/detail/1604?referrer=odpt,https://www.hellocycling.jp/app/port/detail/1604?referrer=odpt,3,6,3,3
34.4796616,134.3090024,◆小豆島◆小豆島町役場前,香川県小豆島町片城甲４４−９５,1607,False,street_parking,+8105038218282,False,https://www.hellocycling.jp/app/port/detail/1607?referrer=odpt,https://www.hellocycling.jp/app/port/detail/1607?referrer=odpt,https://www.hellocycling.jp/app/port/detail/1607?referrer=odpt,2,4,2,2
34.54697,134.281744,小豆島 大部港,香川県土庄町大部３７４６−３２,1610,False,street_parking,+8105038218282,False,https://www.hellocycling.jp/app/port/detail/1610?referrer=odpt,https://www.hellocycling.jp/app/port/detail/1610?referrer=odpt,https://www.hellocycling.jp/app/port/detail/1610?referrer=odpt,4,4,0,4
35.914741,139.610807,セブンイレブン　大宮櫛引1丁目店,埼玉県さいたま市大宮区櫛引町1-702,1633,False,street_parking,+8105038218282,False,https://www.hellocycling.jp/app/port/detail/1633?referrer=odpt,https://www.hellocycling.jp/app/port/detail/1633?referrer=odpt,https://www.hellocycling.jp/app/port/detail/1633?referrer=odpt,2,6,4,2
35.570803,139.616076,セブンイレブン　川崎野川くぬぎ坂店,神奈川県川崎市高津区野川3736,1675,False,street_parking,+8105038218282,False,https://www.hellocycling.jp/app/port/detail/1675?referrer=odpt,https://www.hellocycling.jp/app/port/detail/1675?referrer=odpt,https://www.hellocycling.jp/app/port/detail/1675?referrer=odpt,3,3,0,2
35.5616638,139.66856,セブンイレブン　川崎市ノ坪南店,神奈川県川崎市中原区市ノ坪581-9,1676,False,street_parking,+8105038218282,False,https://www.hellocycling.jp/app/port/detail/1676?referrer=odpt,https://www.hellocycling.jp/app/port/detail/1676?referrer=odpt,https://www.hellocycling.jp/app/port/detail/1676?referrer=odpt,7,10,3,7
35.571385,139.594503,セブンイレブン　川崎東有馬店,神奈川県川崎市宮前区東有馬5-23-20,1677,False,street_parking,+8105038218282,False,https://www.hellocycling.jp/app/port/detail/1677?referrer=odpt,https://www.hellocycling.jp/app/port/detail/1677?referrer=odpt,https://www.hellocycling.jp/app/port/detail/1677?referrer=odpt,2,4,1,2
35.602319,139.581581,セブンイレブン　川崎神木本町1丁目店,神奈川県川崎市宮前区神木本町1-5-1,1678,False,street_parking,+8105038218282,False,https://www.hellocycling.jp/app/port/detail/1678?referrer=odpt,https://www.hellocycling.jp/app/port/detail/1678?referrer=odpt,https://www.hellocycling.jp/app/port/detail/1678?referrer=odpt,6,6,0,4
35.469962,139.480376,セブンイレブン　横浜瀬谷5丁目店,神奈川県横浜市瀬谷区瀬谷5-1,1682,False,street_parking,+8105038218282,False,https://www.hellocycling.jp/app/port/detail/1682?referrer=odpt,https://www.hellocycling.jp/app/port/detail/1682?referrer=odpt,https://www.hellocycling.jp/app/port/detail/1682?referrer=odpt,2,5,3,1
35.404101,139.537003,セブンイレブン　横浜戸塚矢部店,神奈川県横浜市戸塚区矢部町24-1,1683,False,street_parking,+8105038218282,False,https://www.hellocycling.jp/app/port/detail/1683?referrer=odpt,https://www.hellocycling.jp/app/port/detail/1683?referrer=odpt,https://www.hellocycling.jp/app/port/detail/1683?referrer=odpt,7,10,3,7
35.52384,139.651723,セブンイレブン　横浜鶴見二ツ池店,神奈川県横浜市鶴見区駒岡1-26-17,1684,False,street_parking,+8105038218282,False,https://www.hellocycling.jp/app/port/detail/1684?referrer=odpt,https://www.hellocycling.jp/app/port/detail/1684?referrer=odpt,https://www.hellocycling.jp/app/port/detail/1684?referrer=odpt,10,10,0,10
35.521513,139.713312,セブンイレブン　川崎追分店,神奈川県川崎市川崎区大島2-6-13,1694,False,street_parking,+8105038218282,False,https://www.hellocycling.jp/app/port/detail/1694?referrer=odpt,https://www.hellocycling.jp/app/port/detail/1694?referrer=odpt,https://www.hellocycling.jp/app/port/detail/1694?referrer=odpt,3,4,1,2
35.807141,139.600313,セブンイレブン　朝霞岡3丁目店,埼玉県朝霞市岡3-3-62,1706,False,street_parking,+8105038218282,False,https://www.hellocycling.jp/app/port/detail/1706?referrer=odpt,https://www.hellocycling.jp/app/port/detail/1706?referrer=odpt,https://www.hellocycling.jp/app/port/detail/1706?referrer=odpt,18,18,0,18
35.626737,140.069064,セブンイレブン　千葉高浜4丁目店,千葉県千葉市美浜区高浜4-11-1,1707,False,street_parking,+8105038218282,False,https://www.hellocycling.jp/app/port/detail/1707?referrer=odpt,https://www.hellocycling.jp/app/port/detail/1707?referrer=odpt,https://www.hellocycling.jp/app/port/detail/1707?referrer=odpt,10,10,0,10
35.622793,140.072782,セブンイレブン　千葉高浜店,千葉県千葉市美浜区高浜4-1-4,1708,False,street_parking,+8105038218282,False,https://www.hellocycling.jp/app/port/detail/1708?referrer=odpt,https://www.hellocycling.jp/app/port/detail/1708?referrer=odpt,https://www.hellocycling.jp/app/port/detail/1708?referrer=odpt,5,7,2,5
35.619724,140.11895,セブンイレブン　千葉公園駅前店,千葉県千葉市中央区椿森2-4-5,1709,False,street_parking,+8105038218282,False,https://www.hellocycling.jp/app/port/detail/1709?referrer=odpt,https://www.hellocycling.jp/app/port/detail/1709?referrer=odpt,https://www.hellocycling.jp/app/port/detail/1709?referrer=odpt,3,8,5,3
35.625062,140.114968,セブンイレブン　千葉弁天4丁目店,千葉県千葉市中央区弁天4-11,1710,False,street_parking,+8105038218282,False,https://www.hellocycling.jp/app/port/detail/1710?referrer=odpt,https://www.hellocycling.jp/app/port/detail/1710?referrer=odpt,https://www.hellocycling.jp/app/port/detail/1710?referrer=odpt,4,6,2,4
35.63689,140.115755,セブンイレブン　千葉天台4丁目店,千葉県千葉市稲毛区天台4-7-5,1711,False,street_parking,+8105038218282,False,https://www.hellocycling.jp/app/port/detail/1711?referrer=odpt,https://www.hellocycling.jp/app/port/detail/1711?referrer=odpt,https://www.hellocycling.jp/app/port/detail/1711?referrer=odpt,6,6,0,6
35.797489,139.592787,セブンイレブン　朝霞本町1丁目店,埼玉県朝霞市本町1-2-35,1712,False,street_parking,+8105038218282,False,https://www.hellocycling.jp/app/port/detail/1712?referrer=odpt,https://www.hellocycling.jp/app/port/detail/1712?referrer=odpt,https://www.hellocycling.jp/app/port/detail/1712?referrer=odpt,3,4,1,3
35.602047,140.135794,セブンイレブン　千葉青葉町店,千葉県千葉市中央区青葉町1271-2,1714,False,street_parking,+8105038218282,False,https://www.hellocycling.jp/app/port/detail/1714?referrer=odpt,https://www.hellocycling.jp/app/port/detail/1714?referrer=odpt,https://www.hellocycling.jp/app/port/detail/1714?referrer=odpt,3,12,9,2
35.650094,140.043359,メッセアミューズモールBエリア,千葉県千葉市美浜区ひび野1丁目,1721,False,street_parking,+8105038218282,False,https://www.hellocycling.jp/app/port/detail/1721?referrer=odpt,https://www.hellocycling.jp/app/port/detail/1721?referrer=odpt,https://www.hellocycling.jp/app/port/detail/1721?referrer=odpt,3,11,8,3
35.646659,140.040142,三井アウトレットパーク幕張Dサイト,千葉県千葉市美浜区ひび野2丁目,1723,False,street_parking,+8105038218282,False,https://www.hellocycling.jp/app/port/detail/1723?referrer=odpt,https://www.hellocycling.jp/app/port/detail/1723?referrer=odpt,https://www.hellocycling.jp/app/port/detail/1723?referrer=odpt,7,10,3,7
34.484564,134.186482,◆小豆島◆迷路のまち　妖怪美術館,香川県土庄町小豆郡土庄町甲398,1778,False,street_parking,+8105038218282,False,https://www.hellocycling.jp/app/port/detail/1778?referrer=odpt,https://www.hellocycling.jp/app/port/detail/1778?referrer=odpt,https://www.hellocycling.jp/app/port/detail/1778?referrer=odpt,0,4,4,0
34.881792,138.231866,藤枝総合運動公園,静岡県藤枝市原100,1780,False,street_parking,+8105038218282,False,https://www.hellocycling.jp/app/port/detail/1780?referrer=odpt,https://www.hellocycling.jp/app/port/detail/1780?referrer=odpt,https://www.hellocycling.jp/app/port/detail/1780?referrer=odpt,2,4,2,2
34.849865,138.251875,藤枝駅北口（静岡銀行前）,静岡県藤枝市駅前1丁目-2-4,1781,False,street_parking,+8105038218282,False,https://www.hellocycling.jp/app/port/detail/1781?referrer=odpt,https://www.hellocycling.jp/app/port/detail/1781?referrer=odpt,https://www.hellocycling.jp/app/port/detail/1781?referrer=odpt,2,10,8,2
34.86511,138.250286,勝草橋公園,静岡県藤枝市志太3-82-2,1782,False,street_parking,+8105038218282,False,https://www.hellocycling.jp/app/port/detail/1782?referrer=odpt,https://www.hellocycling.jp/app/port/detail/1782?referrer=odpt,https://www.hellocycling.jp/app/port/detail/1782?referrer=odpt,6,8,2,6
34.860754,138.231022,藤枝市立総合病院,静岡県藤枝市駿河台4丁目1-11,1783,False,street_parking,+8105038218282,False,https://www.hellocycling.jp/app/port/detail/1783?referrer=odpt,https://www.hellocycling.jp/app/port/detail/1783?referrer=odpt,https://www.hellocycling.jp/app/port/detail/1783?referrer=odpt,2,6,4,2
34.971561,137.159023,サイクルベースあさひ北岡崎店,愛知県岡崎市広幡町4-7,1785,False,street_parking,+8105038218282,False,https://www.hellocycling.jp/app/port/detail/1785?referrer=odpt,https://www.hellocycling.jp/app/port/detail/1785?referrer=odpt,https://www.hellocycling.jp/app/port/detail/1785?referrer=odpt,2,4,2,2
34.925421,137.166339,サイクルベースあさひ岡崎南店,愛知県岡崎市羽根東町2-7-3,1786,False,street_parking,+8105038218282,False,https://www.hellocycling.jp/app/port/detail/1786?referrer=odpt,https://www.hellocycling.jp/app/port/detail/1786?referrer=odpt,https://www.hellocycling.jp/app/port/detail/1786?referrer=odpt,1,4,3,1
35.436945,139.614706,セブンイレブン　横浜南太田駅前店,神奈川県横浜市南区南太田1-6-13,1787,False,street_parking,+8105038218282,False,https://www.hellocycling.jp/app/port/detail/1787?referrer=odpt,https://www.hellocycling.jp/app/port/detail/1787?referrer=odpt,https://www.hellocycling.jp/app/port/detail/1787?referrer=odpt,3,4,1,2
35.530563,139.652893,セブンイレブン　横浜駒岡3丁目店,神奈川県横浜市鶴見区駒岡3-19-3,1790,False,street_parking,+8105038218282,False,https://www.hellocycling.jp/app/port/detail/1790?referrer=odpt,https://www.hellocycling.jp/app/port/detail/1790?referrer=odpt,https://www.hellocycling.jp/app/port/detail/1790?referrer=odpt,3,4,1,3
35.605339,139.623204,セブンイレブン　川崎諏訪店,神奈川県川崎市高津区諏訪1-9-21,1791,False,street_parking,+8105038218282,False,https://www.hellocycling.jp/app/port/detail/1791?referrer=odpt,https://www.hellocycling.jp/app/port/detail/1791?referrer=odpt,https://www.hellocycling.jp/app/port/detail/1791?referrer=odpt,3,3,0,3
35.611597,139.638191,セブンイレブン　世田谷上野毛駅前店,東京都世田谷区上野毛2-7-15,1792,False,street_parking,+8105038218282,False,https://www.hellocycling.jp/app/port/detail/1792?referrer=odpt,https://www.hellocycling.jp/app/port/detail/1792?referrer=odpt,https://www.hellocycling.jp/app/port/detail/1792?referrer=odpt,3,3,0,3
35.662057,139.665927,セブンイレブン　世田谷下北沢駅前店,東京都世田谷区北沢2-26-6,1795,False,street_parking,+8105038218282,False,https://www.hellocycling.jp/app/port/detail/1795?referrer=odpt,https://www.hellocycling.jp/app/port/detail/1795?referrer=odpt,https://www.hellocycling.jp/app/port/detail/1795?referrer=odpt,3,4,1,2
35.706796,139.816143,セブンイレブン　墨田業平5丁目店,東京都墨田区業平5-3-1,1796,False,street_parking,+8105038218282,False,https://www.hellocycling.jp/app/port/detail/1796?referrer=odpt,https://www.hellocycling.jp/app/port/detail/1796?referrer=odpt,https://www.hellocycling.jp/app/port/detail/1796?referrer=odpt,3,4,1,3
35.710896,139.828544,セブンイレブン　墨田文花店,東京都墨田区文花3-23-8,1797,False,street_parking,+8105038218282,False,https://www.hellocycling.jp/app/port/detail/1797?referrer=odpt,https://www.hellocycling.jp/app/port/detail/1797?referrer=odpt,https://www.hellocycling.jp/app/port/detail/1797?referrer=odpt,2,3,1,2
35.86456,139.67169,セブンイレブン　さいたま原山１丁目店,埼玉県さいたま市緑区原山1-33-19,1814,False,street_parking,+8105038218282,False,https://www.hellocycling.jp/app/port/detail/1814?referrer=odpt,https://www.hellocycling.jp/app/port/detail/1814?referrer=odpt,https://www.hellocycling.jp/app/port/detail/1814?referrer=odpt,2,6,4,2
35.625691,140.126726,サイクルベースあさひ東千葉店,千葉県千葉市中央区東千葉2-32-1,1817,False,street_parking,+8105038218282,False,https://www.hellocycling.jp/app/port/detail/1817?referrer=odpt,https://www.hellocycling.jp/app/port/detail/1817?referrer=odpt,https://www.hellocycling.jp/app/port/detail/1817?referrer=odpt,4,4,0,4
36.3401376,137.8823246,JR穂高駅前,長野県安曇野市穂高5944,1819,False,street_parking,+8105038218282,False,https://www.hellocycling.jp/app/port/detail/1819?referrer=odpt,https://www.hellocycling.jp/app/port/detail/1819?referrer=odpt,https://www.hellocycling.jp/app/port/detail/1819?referrer=odpt,5,20,15,5
36.3543484,137.9303617,JR明科駅前,長野県安曇野市明科中川手3712,1840,False,street_parking,+8105038218282,False,https://www.hellocycling.jp/app/port/detail/1840?referrer=odpt,https://www.hellocycling.jp/app/port/detail/1840?referrer=odpt,https://www.hellocycling.jp/app/port/detail/1840?referrer=odpt,1,15,14,0
36.31422,137.842266,国営アルプスあづみの公園,長野県安曇野市堀金烏川33-4,1841,False,street_parking,+8105038218282,False,https://www.hellocycling.jp/app/port/detail/1841?referrer=odpt,https://www.hellocycling.jp/app/port/detail/1841?referrer=odpt,https://www.hellocycling.jp/app/port/detail/1841?referrer=odpt,2,10,8,2
36.348127,137.839441,安曇野しゃくなげの湯,長野県安曇野市穂高有明7726-4,1842,False,street_parking,+8105038218282,False,https://www.hellocycling.jp/app/port/detail/1842?referrer=odpt,https://www.hellocycling.jp/app/port/detail/1842?referrer=odpt,https://www.hellocycling.jp/app/port/detail/1842?referrer=odpt,3,15,12,3
35.579049,139.66368,セブンイレブン　川崎新丸子東2丁目店,神奈川県川崎市中原区新丸子2-885,1874,False,street_parking,+8105038218282,False,https://www.hellocycling.jp/app/port/detail/1874?referrer=odpt,https://www.hellocycling.jp/app/port/detail/1874?referrer=odpt,https://www.hellocycling.jp/app/port/detail/1874?referrer=odpt,12,13,1,12
35.8079782,139.67597,セブンイレブン　戸田公園駅西口店,埼玉県戸田市本町2-15-7,1876,False,street_parking,+8105038218282,False,https://www.hellocycling.jp/app/port/detail/1876?referrer=odpt,https://www.hellocycling.jp/app/port/detail/1876?referrer=odpt,https://www.hellocycling.jp/app/port/detail/1876?referrer=odpt,0,5,5,0
35.808588,139.682919,セブンイレブン　戸田本町1丁目店,埼玉県戸田市本町1-5-5,1877,False,street_parking,+8105038218282,False,https://www.hellocycling.jp/app/port/detail/1877?referrer=odpt,https://www.hellocycling.jp/app/port/detail/1877?referrer=odpt,https://www.hellocycling.jp/app/port/detail/1877?referrer=odpt,1,3,2,1
34.7252261,135.4006906,サイクルベースあさひ尼崎浜田店,兵庫県尼崎市浜田町5-3,1883,False,street_parking,+8105038218282,False,https://www.hellocycling.jp/app/port/detail/1883?referrer=odpt,https://www.hellocycling.jp/app/port/detail/1883?referrer=odpt,https://www.hellocycling.jp/app/port/detail/1883?referrer=odpt,1,4,3,1
34.742494,135.352648,サイクルベースあさひ山幹西宮キッズ館,兵庫県西宮市両度町1-23,1884,False,street_parking,+8105038218282,False,https://www.hellocycling.jp/app/port/detail/1884?referrer=odpt,https://www.hellocycling.jp/app/port/detail/1884?referrer=odpt,https://www.hellocycling.jp/app/port/detail/1884?referrer=odpt,0,4,4,0
34.724261,135.363106,阪神甲子園北駐輪場,兵庫県西宮市甲子園浦風町19,1885,False,street_parking,+8105038218282,True,https://www.hellocycling.jp/app/port/detail/1885?referrer=odpt,https://www.hellocycling.jp/app/port/detail/1885?referrer=odpt,https://www.hellocycling.jp/app/port/detail/1885?referrer=odpt,4,4,0,3
34.715941,135.474296,セブンイレブン　大阪塚本3丁目店,大阪府大阪市淀川区塚本3-3-3,1901,False,street_parking,+8105038218282,False,https://www.hellocycling.jp/app/port/detail/1901?referrer=odpt,https://www.hellocycling.jp/app/port/detail/1901?referrer=odpt,https://www.hellocycling.jp/app/port/detail/1901?referrer=odpt,4,5,1,3
34.7246613,135.4825999,セブンイレブン　大阪十三本町3丁目店,大阪府大阪市淀川区十三本町3-5-17,1903,False,street_parking,+8105038218282,False,https://www.hellocycling.jp/app/port/detail/1903?referrer=odpt,https://www.hellocycling.jp/app/port/detail/1903?referrer=odpt,https://www.hellocycling.jp/app/port/detail/1903?referrer=odpt,2,7,5,2
34.724936,135.49943,セブンイレブン　大阪西中島1丁目店,大阪府大阪市淀川区西中島1-11-15,1904,False,street_parking,+8105038218282,False,https://www.hellocycling.jp/app/port/detail/1904?referrer=odpt,https://www.hellocycling.jp/app/port/detail/1904?referrer=odpt,https://www.hellocycling.jp/app/port/detail/1904?referrer=odpt,2,5,3,1
35.764359,139.835652,セブンイレブン　足立東和1丁目店,東京都足立区東和1-2-5,1905,False,street_parking,+8105038218282,False,https://www.hellocycling.jp/app/port/detail/1905?referrer=odpt,https://www.hellocycling.jp/app/port/detail/1905?referrer=odpt,https://www.hellocycling.jp/app/port/detail/1905?referrer=odpt,3,9,6,3
34.73724,135.496073,セブンイレブン　大阪宮原4丁目店,大阪府大阪市淀川区宮原4-4-39,1907,False,street_parking,+8105038218282,False,https://www.hellocycling.jp/app/port/detail/1907?referrer=odpt,https://www.hellocycling.jp/app/port/detail/1907?referrer=odpt,https://www.hellocycling.jp/app/port/detail/1907?referrer=odpt,0,8,8,0
